iata_code,name,municipality,iso_region,iso_country,continent,latitude_deg,longitude_deg,elevation_ft
AAA,Anaa Airport,Anaa,PF-U-A,PF,OC,-17.3526,-145.509995,10
AAC,El Arish International Airport,El Arish,EG-SIN,EG,AS,31.078565,33.836791,118
AAE,Annaba Rabah Bitat Airport,Annaba,DZ-23,DZ,AF,36.826781,7.81334,16
AAK,Aranuka Airport,Buariki,KI-G,KI,OC,0.185278,173.636993,6
AAL,Aalborg Airport,Aalborg,DK-81,DK,EU,57.094763,9.84993,10
AAN,Al Ain International Airport,Al Ain,AE-AZ,AE,AS,24.26169968,55.60919952,869
AAP,Aji Pangeran Tumenggung Pranoto International Airport,Samarinda,ID-KI,ID,AS,-0.374478,117.250128,82
AAQ,Anapa Vityazevo Airport,Krasnyi Kurgan,RU-KDA,RU,EU,45.002102,37.347301,174
AAR,Aarhus Airport,Aarhus,DK-82,DK,EU,56.303331,10.618286,82
AAT,Altay Xuedu Airport,Altay,CN-65,CN,AS,47.749886,88.085808,2460
AAX,Romeu Zema Airport,Araxá,BR-MG,BR,SA,-19.5632,-46.9604,3276
AAY,Al Ghaydah International Airport,Al Ghaydah,YE-MR,YE,AS,16.193341,52.174186,134
AAZ,Quezaltenango Airport,Quezaltenango,GT-QZ,GT,NA,14.8656,-91.501999,7779
ABA,Abakan International Airport,Abakan,RU-KK,RU,AS,53.740002,91.385002,831
ABD,Abadan Airport,Abadan,IR-06,IR,AS,30.367887,48.230075,10
ABE,Lehigh Valley International Airport,Allentown,US-PA,US,NA,40.651773,-75.442797,393
ABI,Abilene Regional Airport,Abilene,US-TX,US,NA,32.41130066,-99.68190002,1791
ABJ,Félix-Houphouët-Boigny International Airport,Abidjan,CI-AB,CI,AF,5.26139,-3.92629,21
ABK,Kebri Dahar Airport,Kebri Dahar,ET-SO,ET,AF,6.732577,44.241339,1800
ABL,Ambler Airport,Ambler,US-AK,US,NA,67.105529,-157.855339,334
ABM,Northern Peninsula Airport,Bamaga,AU-QLD,AU,OC,-10.946194,142.455081,34
ABQ,Albuquerque International Sunport,Albuquerque,US-NM,US,NA,35.039976,-106.608925,5355
ABR,Aberdeen Regional Airport,Aberdeen,US-SD,US,NA,45.44910049,-98.42179871,1302
ABS,Abu Simbel Airport,Abu Simbel,EG-ASN,EG,AF,22.367657,31.609962,614
ABT,King Saud Bin Abdulaziz (Al Baha) Airport,Al-Baha,SA-11,SA,AS,20.298506,41.636153,5486
ABU,AA Bere Tallo (Haliwen) Airport,Atambua,ID-NT,ID,AS,-9.074841,124.903285,1027
ABV,Nnamdi Azikiwe International Airport,Abuja,NG-FC,NG,AF,9.00679,7.26317,1123
ABX,Albury Airport,East Albury,AU-NSW,AU,OC,-36.066758,146.959148,539
ABY,Southwest Georgia Regional Airport,Albany,US-GA,US,NA,31.532946,-84.196215,197
ABZ,Aberdeen International Airport,Aberdeen,GB-SCT,GB,EU,57.2019,-2.19778,215
ACA,General Juan N. Álvarez International Airport,Acapulco,MX-GRO,MX,NA,16.757126,-99.753113,16
ACC,Kotoka International Airport,Accra,GH-AA,GH,AF,5.6051898,-0.1667860001,205
ACE,César Manrique-Lanzarote Airport,San Bartolomé,ES-CN,ES,AF,28.945499,-13.6052,46
ACF,Aral Tarim Airport,Aral,CN-65,CN,AS,40.434748,81.26206,
ACH,Sankt Gallen Altenrhein Airport,St. Gallen,CH-SG,CH,EU,47.485001,9.56077,1306
ACI,Alderney Airport,Saint Anne,GG-A,GG,EU,49.706104,-2.21472,290
ACK,Nantucket Memorial Airport,Nantucket,US-MA,US,NA,41.25310135,-70.06020355,47
ACT,Waco Regional Airport,Waco,US-TX,US,NA,31.61129951,-97.23049927,516
ACV,California Redwood Coast-Humboldt County Airport,Arcata/Eureka,US-CA,US,NA,40.978101,-124.109,221
ACX,Xingyi Wanfenglin Airport,Xingyi,CN-52,CN,AS,25.083423,104.960804,4150
ACY,Atlantic City International Airport,Atlantic City,US-NJ,US,NA,39.45759964,-74.57720184,75
ADA,Adana Şakirpaşa Airport,Seyhan,TR-01,TR,AS,36.982201,35.280399,65
ADB,Adnan Menderes International Airport,Gaziemir,TR-35,TR,AS,38.2924,27.157,412
ADD,Addis Ababa Bole International Airport,Addis Ababa,ET-AA,ET,AF,8.97789,38.799301,7630
ADE,Aden International Airport,Aden,YE-AD,YE,AS,12.8295,45.028801,7
ADF,Adıyaman Airport,Adıyaman,TR-02,TR,AS,37.7314,38.468899,2216
ADJ,Amman Civil (Marka International) Airport,Amman,JO-AM,JO,AS,31.9727,35.9916,2555
ADK,Adak Airport,Adak,US-AK,US,NA,51.883564,-176.642783,18
ADL,Adelaide International Airport,Adelaide,AU-SA,AU,OC,-34.947512,138.533393,20
ADQ,Kodiak Airport,Kodiak,US-AK,US,NA,57.75,-152.4940033,78
ADU,Ardabil Airport,Ardabil,IR-24,IR,AS,38.32569885,48.42440033,4315
ADZ,Gustavo Rojas Pinilla International Airport,San Andrés,CO-SAP,CO,NA,12.5836,-81.7112,19
AEB,Baise (Bose) Bama Airport,Baise (Tianyang),CN-45,CN,AS,23.7206,106.959999,490
AEH,Abeche Airport,Abeche,TD-OD,TD,AF,13.847,20.844299,1788
AEP,Jorge Newbery Airpark,Buenos Aires,AR-C,AR,SA,-34.5592,-58.4156,18
AER,Sochi International Airport,Sochi,RU-KDA,RU,EU,43.449902,39.9566,89
AES,"Ålesund Airport, Vigra",Ålesund,NO-15,NO,EU,62.5625,6.1197,69
AET,Allakaket Airport,Allakaket,US-AK,US,NA,66.551804,-152.621994,441
AEU,Abu Musa Island Airport,Abu Musa,IR-22,IR,AS,25.8757,55.033001,23
AEX,Alexandria International Airport,Alexandria,US-LA,US,NA,31.3274,-92.549797,89
AEY,Akureyri Airport,Akureyri,IS-6,IS,EU,65.656573,-18.072018,6
AFA,Suboficial Ay Santiago Germano Airport,San Rafael,AR-M,AR,SA,-34.588299,-68.4039,2470
AFL,Piloto Osvaldo Marques Dias Airport,Alta Floresta,BR-MT,BR,SA,-9.866389,-56.106298,948
AFS,Sugraly Airport,Zarafshan,UZ-NW,UZ,AS,41.613899,64.2332,1396
AFZ,Sabzevar National Airport,Sabzevar,IR-09,IR,AS,36.16809845,57.59519958,3010
AGA,Al Massira Airport,Agadir (Temsia),MA-09,MA,AF,30.322478,-9.412003,250
AGE,Wangerooge Airport,Wangerooge,DE-NI,DE,EU,53.782544,7.919584,7
AGH,Ängelholm-Helsingborg Airport,Ängelholm,SE-M,SE,EU,56.29610062,12.84710026,68
AGI,Wageningen Airstrip,Wageningen,SR-NI,SR,SA,5.841252,-56.673247,6
AGJ,Aguni Airport,Aguni,JP-47,JP,AS,26.592755,127.240335,38
AGM,Tasiilaq Heliport,Tasiilaq,GL-SE,GL,NA,65.612296,-37.618335,24
AGN,Angoon Seaplane Base,Angoon,US-AK,US,NA,57.497097,-134.56722,
AGP,Málaga-Costa del Sol Airport,Málaga,ES-AN,ES,EU,36.6749,-4.49911,53
AGR,Agra Airport / Agra Air Force Station,Agra,IN-UP,IN,AS,27.157683,77.960942,551
AGS,Augusta Regional At Bush Field,Augusta,US-GA,US,NA,33.3699,-81.9645,144
AGT,Aeropuerto Internacional Guaraní,Ciudad del Este,PY-10,PY,SA,-25.457186,-54.839544,846
AGU,Jesús Terán Peredo International Airport,Aguascalientes,MX-AGU,MX,NA,21.699589,-102.318372,6112
AGX,Agatti Airport,Agatti,IN-LD,IN,AS,10.8237,72.176003,14
AHA,Maa Mahamaya Airport,Ambikapur,IN-CT,IN,AS,22.98753,83.19612,1930
AHB,Abha International Airport,Abha,SA-14,SA,AS,18.2404,42.656601,6858
AHE,Ahe Airport,Ahe Atoll,PF-U-A,PF,OC,-14.42809963,-146.2570038,11
AHO,Alghero-Fertilia Airport,Alghero,IT-88,IT,EU,40.632099,8.29077,87
AIA,Alliance Municipal Airport,Alliance,US-NE,US,NA,42.052543,-102.803965,3931
AIN,Wainwright Airport,Wainwright,US-AK,US,NA,70.638,-159.994995,41
AIP,Adampur Airport,Adampur,IN-PB,IN,AS,31.4338,75.758797,775
AIT,Aitutaki Airport,Aitutaki,CK-U-A,CK,OC,-18.8309,-159.764008,14
AIU,Enua Airport,Atiu Island,CK-U-A,CK,OC,-19.96780014,-158.1190033,36
AJA,Ajaccio-Napoléon Bonaparte Airport,Ajaccio/Napoléon Bonaparte,FR-COR,FR,EU,41.92359924,8.802920341,18
AJF,Al-Jawf Domestic Airport,Al-Jawf,SA-12,SA,AS,29.78510094,40.09999847,2261
AJI,Ağrı Airport,Ağrı,TR-04,TR,AS,39.655642,43.025742,5462
AJL,Lengpui Airport,Aizawl (Lengpui),IN-MZ,IN,AS,23.840599,92.619698,1398
AJN,Ouani Airport,Ouani,KM-A,KM,AF,-12.131047,44.430044,62
AJR,Arvidsjaur Airport,Arvidsjaur,SE-BD,SE,EU,65.59030151,19.28190041,1245
AJU,Aracaju - Santa Maria International Airport,Aracaju,BR-SE,BR,SA,-10.984,-37.070301,139
AJY,Mano Dayak International Airport,Agadez,NE-1,NE,AF,16.9659996,8.000109673,1657
AKA,Ankang Fuqiang Airport,Ankang (Hanbin),CN-61,CN,AS,32.75696,108.87338,1209
AKB,Atka Airport,Atka,US-AK,US,NA,52.220299,-174.205994,57
AKF,Kufra Airport,Kufra,LY-KF,LY,AF,24.17869949,23.31399918,1367
AKI,Akiak Airport,Akiak,US-AK,US,NA,60.902646,-161.23106,30
AKJ,Asahikawa Airport,Higashikagura,JP-01,JP,AS,43.670799,142.447006,721
AKK,Akhiok Airport,Akhiok,US-AK,US,NA,56.938702,-154.182999,44
AKL,Auckland International Airport,Auckland,NZ-AUK,NZ,OC,-37.01199,174.786331,23
AKN,King Salmon Airport,King Salmon,US-AK,US,NA,58.677845,-156.651965,73
AKP,Anaktuvuk Pass Airport,Anaktuvuk Pass,US-AK,US,NA,68.133598,-151.742996,2102
AKR,Akure Airport,Akure,NG-ON,NG,AF,7.246739864,5.301010132,1100
AKS,Gwaunaru'u Airport,Auki,SB-ML,SB,OC,-8.70257,160.682007,5
AKU,Aksu Hongqipo Airport,Aksu (Onsu),CN-65,CN,AS,41.262501,80.291702,3816
AKV,Akulivik Airport,Akulivik,CA-QC,CA,NA,60.8186,-78.148598,75
AKX,Aktobe Airport,Aktobe,KZ-AKT,KZ,AS,50.2458,57.206699,738
AKY,Sittwe Airport,Sittwe,MM-16,MM,AS,20.133165,92.870693,27
ALA,Almaty International Airport,Almaty,KZ-ALA,KZ,AS,43.354267,77.042828,2234
ALB,Albany International Airport,Albany,US-NY,US,NA,42.74829865,-73.80169678,285
ALC,Alicante-Elche Miguel Hernández Airport,Alicante,ES-VC,ES,EU,38.2822,-0.558156,142
ALF,Alta Airport,Alta,NO-56,NO,EU,69.976097,23.3717,9
ALG,Houari Boumediene Airport,Algiers,DZ-16,DZ,AF,36.693886,3.214531,82
ALH,Albany Airport,Albany,AU-WA,AU,OC,-34.94329834,117.8089981,233
ALO,Waterloo Regional Airport,Waterloo,US-IA,US,NA,42.55709839,-92.40029907,873
ALP,Aleppo International Airport,Aleppo,SY-HL,SY,AS,36.180698,37.2244,1276
ALS,San Luis Valley Regional Airport/Bergman Field,Alamosa,US-CO,US,NA,37.434898,-105.866997,7539
ALW,Walla Walla Regional Airport,Walla Walla,US-WA,US,NA,46.09489822,-118.288002,1194
ALZ,Alitak Seaplane Base,Lazy Bay,US-AK,US,NA,56.897294,-154.249692,
AMA,Rick Husband Amarillo International Airport,Amarillo,US-TX,US,NA,35.219398,-101.706001,3607
AMD,Sardar Vallabh Bhai Patel International Airport,Ahmedabad,IN-GJ,IN,AS,23.0772,72.634697,189
AMH,Arba Minch Airport,Arba Minch,ET-SN,ET,AF,6.03939,37.5905,3901
AMM,Queen Alia International Airport,Amman,JO-AM,JO,AS,31.72260094,35.99319839,2395
AMQ,Pattimura International Airport,Ambon,ID-MA,ID,AS,-3.71026,128.089005,33
AMS,Amsterdam Airport Schiphol,Amsterdam,NL-NH,NL,EU,52.308601,4.76389,-11
AMV,Amderma Airport,Amderma,RU-NEN,RU,AS,69.76329803,61.5564003,13
ANC,Ted Stevens Anchorage International Airport,Anchorage,US-AK,US,NA,61.179004,-149.992561,152
ANF,Andrés Sabella Gálvez International Airport,Antofagasta,CL-AN,CL,SA,-23.444501,-70.445099,455
ANI,Aniak Airport,Aniak,US-AK,US,NA,61.58160019,-159.5429993,88
ANR,Antwerp International Airport (Deurne),Antwerp,BE-VAN,BE,EU,51.190667,4.463153,39
ANS,Andahuaylas Airport,Andahuaylas,PE-APU,PE,SA,-13.70639992,-73.35040283,11300
ANU,V C Bird International Airport,Osbourn,AG-03,AG,NA,17.1367,-61.792702,62
ANV,Anvik Airport,Anvik,US-AK,US,NA,62.646702,-160.190994,291
ANX,"Andøya Airport, Andenes",Andenes,NO-18,NO,EU,69.292503,16.144199,43
AOE,Anadolu Airport,Eskişehir,TR-26,TR,AS,39.809898,30.5194,2588
AOG,Anshan Teng'ao Airport / Anshan Air Base,Anshan,CN-21,CN,AS,41.105301,122.853996,
AOI,Marche Airport,Falconara Marittima (AN),IT-57,IT,EU,43.616299,13.3623,49
AOJ,Aomori Airport,Aomori,JP-02,JP,AS,40.73469925,140.6909943,664
AOK,Karpathos Airport,Karpathos Island,GR-L,GR,EU,35.421398,27.146,66
AOO,Altoona Blair County Airport,Altoona,US-PA,US,NA,40.296398,-78.32,1503
AOQ,Aappilattoq Heliport,Aappilattoq,GL-AV,GL,NA,72.88703,-55.596287,42
AOR,Sultan Abdul Halim Airport,Alor Satar,MY-02,MY,AS,6.189670086,100.3980026,15
AOS,Amook Bay Seaplane Base,Amook Bay,US-AK,US,NA,57.4715004,-153.8150024,
APK,Apataki Airport,Apataki,PF-U-A,PF,OC,-15.5736,-146.414993,8
APL,Nampula Airport,Nampula,MZ-N,MZ,AF,-15.10560036,39.28179932,1444
APN,Alpena County Regional Airport,Alpena,US-MI,US,NA,45.0780983,-83.56030273,690
APO,Antonio Roldán Betancur Airport,Carepa,CO-ANT,CO,SA,7.81196,-76.7164,46
APW,Faleolo International Airport,Apia,WS-AA,WS,OC,-13.82999992,-172.0079956,58
AQA,Araraquara Airport,Araraquara,BR-SP,BR,SA,-21.812,-48.132999,2334
AQG,Anqing Tianzhushan Airport / Anqing North Air Base,Anqing,CN-34,CN,AS,30.582199,117.050003,
AQI,Al Qaisumah/Hafr Al Batin Airport,Qaisumah,SA-04,SA,AS,28.335199,46.125099,1174
AQJ,Aqaba King Hussein International Airport,Aqaba,JO-AQ,JO,AS,29.61160088,35.01810074,175
AQP,Rodríguez Ballón International Airport,Arequipa,PE-ARE,PE,SA,-16.34110069,-71.58309937,8405
ARC,Arctic Village Airport,Arctic Village,US-AK,US,NA,68.1147,-145.578995,2092
ARD,Alor Island - Mali Airport,Kabola,ID-NT,ID,AS,-8.13234,124.597,10
ARH,Talagi Airport,Archangelsk,RU-ARK,RU,EU,64.60030365,40.71670151,62
ARI,Chacalluta Airport,Arica,CL-AP,CL,SA,-18.348499,-70.338699,167
ARK,Arusha Airport,Arusha,TZ-01,TZ,AF,-3.367789984,36.63330078,4550
ARM,Armidale Airport,Armidale,AU-NSW,AU,OC,-30.52809906,151.6170044,3556
ARN,Stockholm-Arlanda Airport,Stockholm,SE-AB,SE,EU,59.64849,17.928829,137
ART,Watertown International Airport,Watertown,US-NY,US,NA,43.991901,-76.021698,325
ARU,Araçatuba Airport,Araçatuba,BR-SP,BR,SA,-21.141479,-50.424575,1361
ARW,Arad International Airport,Arad,RO-AR,RO,EU,46.176601,21.261999,352
ASA,Assab International Airport,Assab,ER-DK,ER,AF,13.0718,42.645,46
ASB,Ashgabat International Airport,Ashgabat,TM-S,TM,AS,37.986801,58.361,692
ASE,Aspen-Pitkin County Airport (Sardy Field),Aspen,US-CO,US,NA,39.223202,-106.869003,7820
ASF,Astrakhan Narimanovo Boris M. Kustodiev International Airport,Astrakhan,RU-AST,RU,AS,46.282843,48.010511,-65
ASI,RAF Ascension Island,Cat Hill,SH-AC,SH,AF,-7.9696,-14.3937,278
ASJ,Amami Airport,Amami,JP-46,JP,AS,28.43059921,129.7129974,27
ASM,Asmara International Airport,Asmara,ER-SK,ER,AF,15.29189968,38.91070175,7661
ASO,Asosa Airport,Asosa,ET-BE,ET,AF,10.01850033,34.5862999,5100
ASP,Alice Springs Airport,Alice Springs,AU-NT,AU,OC,-23.806588,133.903427,1789
ASR,Kayseri Erkilet Airport,Kayseri,TR-38,TR,AS,38.770401,35.49539948,3463
ASU,Aeropuerto Internacional Silvio Pettirossi,Asunción,PY-11,PY,SA,-25.240156,-57.519227,292
ASV,Amboseli Airport,Amboseli National Park,KE-700,KE,AF,-2.645050049,37.25310135,3755
ASW,Aswan International Airport,Aswan,EG-ASN,EG,AF,23.968137,32.824445,650
ATC,Arthur's Town Airport,Arthur's Town,BS-CI,BS,NA,24.6294,-75.673797,18
ATH,Athens Eleftherios Venizelos International Airport,Spata-Artemida,GR-I,GR,EU,37.936401,23.9445,308
ATK,Atqasuk Edward Burnell Sr Memorial Airport,Atqasuk,US-AK,US,NA,70.46704,-157.436013,96
ATL,Hartsfield Jackson Atlanta International Airport,Atlanta,US-GA,US,NA,33.6367,-84.428101,1026
ATM,Altamira Interstate Airport,Altamira,BR-PA,BR,SA,-3.253144,-52.253938,368
ATQ,Sri Guru Ram Dass Jee International Airport,Amritsar,IN-PB,IN,AS,31.7096,74.797302,756
ATT,Atmautluak Airport,Atmautluak,US-AK,US,NA,60.866699,-162.272996,17
ATW,Appleton International Airport,Appleton,US-WI,US,NA,44.258099,-88.519096,918
ATY,Watertown Regional Airport,Watertown,US-SD,US,NA,44.91400146,-97.15470123,1749
ATZ,Asyut International Airport,Asyut,EG-AST,EG,AF,27.050818,31.016309,748
AUA,Queen Beatrix International Airport,Oranjestad,AW-U-A,AW,NA,12.5014,-70.015198,60
AUC,Santiago Perez Airport,Arauca,CO-ARA,CO,SA,7.06888,-70.7369,420
AUG,Augusta State Airport,Augusta,US-ME,US,NA,44.3205986,-69.79730225,352
AUH,Zayed International Airport,Abu Dhabi,AE-AZ,AE,AS,24.443764,54.651718,88
AUK,Alakanuk Airport,Alakanuk,US-AK,US,NA,62.682653,-164.722481,10
AUL,Aur Island Airport,Aur Atoll,MH-AUR,MH,OC,8.14528,171.173004,
AUQ,Hiva Oa-Atuona Airport,Hiva Oa Island,PF-U-A,PF,OC,-9.768790245,-139.0110016,1481
AUR,Aurillac Airport,Aurillac,FR-ARA,FR,EU,44.89139938,2.421940088,2096
AUS,Austin Bergstrom International Airport,Austin,US-TX,US,NA,30.197535,-97.662015,542
AUU,Aurukun Airport,Aurukun,AU-QLD,AU,OC,-13.354019,141.720028,31
AUX,Araguaína Airport,Araguaína,BR-TO,BR,SA,-7.22787,-48.240501,771
AVA,Anshun Huangguoshu Airport,Anshun (Xixiu),CN-52,CN,AS,26.260556,105.873333,4812
AVK,Arvaikheer Airport,Arvaikheer,MN-055,MN,AS,46.25030136,102.802002,5932
AVL,Asheville Regional Airport,Asheville,US-NC,US,NA,35.436199,-82.541801,2165
AVN,Avignon-Caumont Airport,"Avignon, Vaucluse",FR-PAC,FR,EU,43.907299,4.90183,124
AVP,Wilkes Barre Scranton International Airport,Wilkes-Barre/Scranton,US-PA,US,NA,41.33850098,-75.7233963,962
AVV,Avalon Airport,Lara,AU-VIC,AU,OC,-38.039398,144.468994,35
AWA,Hawassa International Airport,Hawassa,ET-XSD,ET,AF,7.099869,38.396187,5450
AWK,Wake Island Airfield,Wake Island,UM-79,UM,OC,19.282437,166.636637,14
AWZ,Lieutenant General Qasem Soleimani International Airport,Ahvaz,IR-06,IR,AS,31.3374,48.762001,66
AXA,Clayton J Lloyd International Airport,The Valley,AI-U-A,AI,NA,18.204773,-63.05383,127
AXD,Alexandroupoli Democritus Airport,Alexandroupolis,GR-A,GR,EU,40.8559,25.956301,24
AXF,Alxa Left Banner Bayanhot Airport,Bayanhot,CN-15,CN,AS,38.74831,105.58858,4560
AXJ,Amakusa Airport,Amakusa,JP-43,JP,AS,32.482498,130.158997,340
AXM,El Eden Airport,Armenia,CO-QUI,CO,SA,4.45278,-75.7664,3990
AXP,Spring Point Airport,Spring Point,BS-AK,BS,NA,22.441799,-73.970901,11
AXR,Arutua Airport,,PF-U-A,PF,OC,-15.2482996,-146.6170044,9
AXT,Akita Airport,Akita,JP-05,JP,AS,39.615601,140.218994,313
AXU,Axum Airport,Axum,ET-TI,ET,AF,14.1468,38.7728,6959
AYJ,Ayodhya Airport,Faizabad,IN-UP,IN,AS,26.751283,82.155295,335
AYP,Air Force Colonel Alfredo Mendivil Duarte Airport,Ayacucho,PE-AYA,PE,SA,-13.1548,-74.204399,8917
AYQ,Ayers Rock Connellan Airport,Yulara,AU-NT,AU,OC,-25.185913,130.97703,1626
AYT,Antalya International Airport,Antalya,TR-07,TR,AS,36.898701,30.800501,177
AZA,Mesa Gateway Airport,Mesa,US-AZ,US,NA,33.3078,-111.654999,1382
AZD,Shahid Sadooghi Airport,Yazd,IR-21,IR,AS,31.9048996,54.2765007,4054
AZN,Andizhan Airport,Andizhan,UZ-AN,UZ,AS,40.727699,72.293999,1515
AZO,Kalamazoo Battle Creek International Airport,Kalamazoo,US-MI,US,NA,42.23490143,-85.55210114,874
AZR,Touat Cheikh Sidi Mohamed Belkebir Airport,Adrar,DZ-01,DZ,AF,27.837601,-0.186414,919
AZS,Samaná El Catey International Airport,Samana,DO-20,DO,NA,19.269259,-69.737405,30
BAG,Loakan Airport,Baguio,PH-BAG,PH,AS,16.375034,120.619949,4251
BAH,Bahrain International Airport,Manama,BH-15,BH,AS,26.267295,50.63764,6
BAL,Batman Airport,Batman,TR-72,TR,AS,37.92900085,41.11660004,1822
BAQ,Ernesto Cortissoz International Airport,Barranquilla,CO-ATL,CO,SA,10.8896,-74.7808,98
BAR,Qionghai Bo'ao Airport,Qionghai (Basuo),CN-46,CN,AS,19.140951,110.452766,30
BAS,Ballalae Airport,Ballalae,SB-WE,SB,OC,-6.990745,155.886656,5
BAV,Baotou Donghe Airport,Baotou,CN-15,CN,AS,40.560001,109.997002,3321
BAX,Barnaul Airport,Barnaul,RU-ALT,RU,AS,53.36380005,83.53849792,837
BAY,Maramureș International Airport,Tăuții-Măgherăuș,RO-MM,RO,EU,47.658444,23.464445,605
BAZ,Barcelos Airport,Barcelos,BR-AM,BR,SA,-0.981191,-62.918603,112
BBA,Balmaceda Airport,Balmaceda,CL-AI,CL,SA,-45.915968,-71.689499,1722
BBG,Butaritari Airport,Butaritari,KI-G,KI,OC,3.08583,172.811005,5
BBI,Biju Patnaik Airport,Bhubaneswar,IN-OR,IN,AS,20.24440002,85.81780243,138
BBK,Kasane Airport,Kasane,BW-CH,BW,AF,-17.832899,25.162399,3289
BBM,Battambang Airport,Battambang,KH-2,KH,AS,13.0956,103.223999,59
BBN,Bario Airport,Bario,MY-13,MY,AS,3.734648,115.478548,3350
BBO,Berbera Airport,Berbera,SO-WO,SO,AF,10.385035,44.936723,30
BBQ,Codrington Airport,Codrington,AG-10,AG,NA,17.635799,-61.828602,15
BBR,Basse-Terre Baillif Airport,Basse-Terre,GP-U-A,GP,NA,16.013648,-61.742928,59
BBU,Bucharest Băneasa Aurel Vlaicu International Airport,Bucharest,RO-B,RO,EU,44.503201,26.1021,297
BCA,Gustavo Rizo Airport,Baracoa,CU-14,CU,NA,20.36529922,-74.5062027,26
BCD,Bacolod-Silay Airport,Bacolod City,PH-NEC,PH,AS,10.7764,123.014999,82
BCI,Barcaldine Airport,Barcaldine,AU-QLD,AU,OC,-23.566268,145.302086,878
BCM,Bacău George Enescu International  Airport,Bacău,RO-BC,RO,EU,46.5219,26.910299,607
BCN,Josep Tarradellas Barcelona-El Prat Airport,Barcelona,ES-CT,ES,EU,41.2971,2.07846,12
BCU,Sir Abubakar Tafawa Balewa International Airport,Bauchi,NG-BA,NG,AF,10.482833,9.744,1965
BDA,L.F. Wade International Airport,Hamilton,BM-U-A,BM,NA,32.363998,-64.678703,12
BDB,Bundaberg Airport,Bundaberg,AU-QLD,AU,OC,-24.905039,152.322612,107
BDD,Badu Island Airport,Badu Island,AU-QLD,AU,OC,-10.14955,142.173665,14
BDH,Bandar Lengeh International Airport,Bandar Lengeh,IR-22,IR,AS,26.532283,54.82484,67
BDJ,Syamsudin Noor International Airport,Landasan Ulin,ID-KS,ID,AS,-3.44236,114.763,66
BDL,Bradley International Airport,Hartford,US-CT,US,NA,41.93851,-72.688066,173
BDO,Husein Sastranegara International Airport,Bandung,ID-JB,ID,AS,-6.90063,107.575996,2436
BDP,Bhadrapur Airport,Bhadrapur,NP-P1,NP,AS,26.57080078,88.07959747,300
BDQ,Vadodara Airport,Vadodara,IN-GJ,IN,AS,22.336201,73.226303,129
BDS,Brindisi Airport,Brindisi,IT-75,IT,EU,40.6576,17.947001,47
BDT,Gbadolite Airport,Gbadolite,CD-NU,CD,AF,4.252745,20.975271,1509
BDU,Bardufoss Airport,Målselv,NO-55,NO,EU,69.055801,18.5404,252
BEB,Benbecula Airport,Balivanich,GB-SCT,GB,EU,57.48109818,-7.362780094,19
BED,Laurence G Hanscom Field,Bedford,US-MA,US,NA,42.470001,-71.289001,133
BEF,Bluefields Airport,Bluefileds,NI-AS,NI,NA,11.991,-83.774101,20
BEG,Belgrade Nikola Tesla Airport,Belgrade,RS-00,RS,EU,44.818401,20.309099,335
BEJ,Kalimarau Airport,Tanjung Redeb - Borneo Island,ID-KI,ID,AS,2.14776,117.430705,59
BEK,Bareilly Air Force Station,Bareilly,IN-UP,IN,AS,28.4221,79.450798,580
BEL,Val de Cans/Júlio Cezar Ribeiro International Airport,Belém,BR-PA,BR,SA,-1.379279,-48.476207,54
BEN,Benina International Airport,Benina,LY-BA,LY,AF,32.096802,20.269501,433
BER,Berlin Brandenburg Airport,Berlin,DE-BR,DE,EU,52.362247,13.500672,157
BES,Brest Bretagne Airport,Brest/Guipavas,FR-BRE,FR,EU,48.447899,-4.41854,325
BET,Bethel Airport,Bethel,US-AK,US,NA,60.77980042,-161.8379974,126
BEU,Bedourie Airport,Bedourie,AU-QLD,AU,OC,-24.3461,139.460007,300
BEW,Beira Airport,Beira,MZ-S,MZ,AF,-19.7964,34.9076,33
BEY,Beirut Rafic Hariri International Airport,Beirut,LB-JL,LB,AS,33.82089996,35.48839951,87
BFD,Bradford Regional Airport,Bradford,US-PA,US,NA,41.80310059,-78.64009857,2143
BFF,Western Neb. Rgnl/William B. Heilig Airport,Scottsbluff,US-NE,US,NA,41.87400055,-103.5960007,3967
BFI,Boeing Field King County International Airport,Seattle,US-WA,US,NA,47.529999,-122.302002,21
BFJ,Bijie Feixiong Airport,Bijie,CN-52,CN,AS,27.267066,105.472097,4751
BFL,Meadows Field,Bakersfield,US-CA,US,NA,35.433601,-119.056999,510
BFN,Bram Fischer International Airport,Bloemfontain,ZA-FS,ZA,AF,-29.092699,26.302401,4457
BFQ,Bahia Piña Airport,Puerto Piña,PA-5,PA,NA,7.58737,-78.179939,14
BFS,Belfast International Airport,Belfast,GB-NIR,GB,EU,54.65750122,-6.215829849,268
BFV,Buri Ram Airport,Buriram,TH-31,TH,AS,15.2295,103.252998,590
BGA,Palonegro Airport,Bucaramanga,CO-SAN,CO,SA,7.1265,-73.1848,3897
BGC,Bragança Airport,Bragança,PT-04,PT,EU,41.8578,-6.70713,2241
BGF,Bangui M'Poko International Airport,Bangui,CF-MP,CF,AF,4.398479939,18.51880074,1208
BGG,Bingöl Airport,Bingöl,TR-12,TR,AS,38.860131,40.594489,3506
BGI,Grantley Adams International Airport,Bridgetown,BB-01,BB,NA,13.0746,-59.4925,169
BGK,Big Creek Airport,Big Creek,BZ-SC,BZ,NA,16.519369,-88.407913,22
BGM,Greater Binghamton/Edwin A Link field,Binghamton,US-NY,US,NA,42.20869827,-75.97979736,1636
BGO,"Bergen Airport, Flesland",Bergen,NO-46,NO,EU,60.2934,5.21814,170
BGR,Bangor International Airport,Bangor,US-ME,US,NA,44.8074,-68.828102,192
BGW,Baghdad International Airport / New Al Muthana Air Base,Baghdad,IQ-BG,IQ,AS,33.262501,44.2346,114
BGY,Milan Bergamo Airport / Antonio Locatelli Air Base,Orio al Serio (BG),IT-25,IT,EU,45.670725,9.709223,782
BHB,Hancock County-Bar Harbor Airport,Bar Harbor,US-ME,US,NA,44.45000076,-68.3615036,83
BHD,George Best Belfast City Airport,Belfast,GB-NIR,GB,EU,54.618099,-5.8725,15
BHE,Woodbourne Airport,Blenheim,NZ-MBH,NZ,OC,-41.5182991,173.8699951,109
BHH,Bisha Airport,Bisha,SA-14,SA,AS,19.9844,42.620899,3887
BHI,Comandante Espora Airport,Bahía Blanca,AR-B,AR,SA,-38.725,-62.1693,246
BHJ,Bhuj Airport,Bhuj,IN-GJ,IN,AS,23.28779984,69.67019653,268
BHK,Bukhara International Airport,Bukhara,UZ-BU,UZ,AS,39.775002,64.483299,751
BHM,Birmingham-Shuttlesworth International Airport,Birmingham,US-AL,US,NA,33.562901,-86.753502,650
BHO,Raja Bhoj International Airport,Bhopal,IN-MP,IN,AS,23.28750038,77.33740234,1711
BHQ,Broken Hill Airport,Broken Hill,AU-NSW,AU,OC,-32.00139999,141.4720001,958
BHR,Bharatpur Airport,Bharatpur,NP-P3,NP,AS,27.678101,84.429398,600
BHS,Bathurst Airport,Bathurst,AU-NSW,AU,OC,-33.406817,149.651161,2435
BHU,Bhavnagar Airport,Bhavnagar,IN-GJ,IN,AS,21.75219917,72.18520355,44
BHV,Bahawalpur Airport,Bahawalpur,PK-PB,PK,AS,29.34810066,71.71800232,392
BHX,Birmingham Airport,"Birmingham, West Midlands",GB-ENG,GB,EU,52.453899,-1.74803,327
BHY,Beihai Fucheng Airport,Beihai (Yinhai),CN-45,CN,AS,21.5394,109.293999,75
BIA,Bastia-Poretta Airport,Bastia/Poretta,FR-COR,FR,EU,42.55270004,9.483730316,26
BIC,Aérodrome de Belle Île,Bangor,FR-BRE,FR,EU,47.325256,-3.201255,171
BID,Block Island State Airport,Block Island,US-RI,US,NA,41.168446,-71.578631,108
BIH,Eastern Sierra Regional Airport,Bishop,US-CA,US,NA,37.3731,-118.363998,4124
BII,Enyu Airfield,Bikini Atoll,MH-BIK,MH,OC,11.5225,165.565002,
BIK,Frans Kaisiepo Airport,Biak,ID-PA,ID,AS,-1.19002,136.108002,46
BIL,Billings Logan International Airport,Billings,US-MT,US,NA,45.807701,-108.542999,3652
BIM,South Bimini Airport,South Bimini,BS-BI,BS,NA,25.69989967,-79.26470184,10
BIO,Bilbao Airport,Bilbao,ES-PV,ES,EU,43.301102,-2.91061,138
BIQ,Biarritz-Anglet-Bayonne Airport,Biarritz/Anglet/Bayonne,FR-NAQ,FR,EU,43.468333,-1.531111,245
BIR,Biratnagar Airport,Biratnagar,NP-P1,NP,AS,26.48150063,87.26399994,236
BIS,Bismarck Municipal Airport,Bismarck,US-ND,US,NA,46.77270126,-100.7460022,1661
BJA,Soummam–Abane Ramdane Airport,Béjaïa,DZ-06,DZ,AF,36.711952,5.069804,20
BJB,Bojnord Airport,Bojnord,IR-28,IR,AS,37.49300003,57.30820084,3499
BJC,Rocky Mountain Metropolitan Airport,Denver,US-CO,US,NA,39.908798,-105.116997,5673
BJF,Båtsfjord Airport,Båtsfjord,NO-56,NO,EU,70.60025,29.692612,490
BJL,Banjul International Airport,Yundum,GM-W,GM,AF,13.338,-16.652201,95
BJM,Bujumbura Melchior Ndadaye International Airport,Bujumbura,BI-BM,BI,AF,-3.32402,29.318501,2582
BJR,Bahir Dar Airport,Bahir Dar,ET-AM,ET,AF,11.6081,37.321602,5978
BJT,Bentota River Waterdrome,Bentota,LK-1,LK,AS,6.431,79.996,
BJV,Milas Bodrum International Airport,Bodrum,TR-48,TR,AS,37.250599,27.664301,21
BJX,Del Bajío International Airport,Silao,MX-GUA,MX,NA,20.992695,-101.480284,5956
BJZ,Badajoz Airport,Badajoz,ES-EX,ES,EU,38.8913,-6.82133,609
BKC,Buckland Airport,Buckland,US-AK,US,NA,65.981598,-161.149002,31
BKF,Lake Brooks Seaplane Base,Katmai National Park,US-AK,US,NA,58.554798,-155.776993,36
BKG,Branson Airport,Branson,US-MO,US,NA,36.532082,-93.200544,1302
BKI,Kota Kinabalu International Airport,Kota Kinabalu,MY-12,MY,AS,5.932743,116.049324,10
BKK,Suvarnabhumi Airport,Bangkok,TH-10,TH,AS,13.68109989,100.7470016,5
BKM,Bakalalan Airport,Bakalalan,MY-13,MY,AS,3.974,115.617996,2900
BKN,Balkanabat Airport,Balkanabat,TM-B,TM,AS,39.480598,54.366001,5
BKO,Modibo Keita International Airport,Bamako,ML-2,ML,AF,12.5335,-7.94994,1247
BKQ,Blackall Airport,Blackall,AU-QLD,AU,OC,-24.431678,145.429716,928
BKS,Fatmawati Soekarno Airport,Bengkulu,ID-BE,ID,AS,-3.8637,102.338997,50
BKW,Raleigh County Memorial Airport,Beaver,US-WV,US,NA,37.7873,-81.124199,2504
BKZ,Bukoba Airport,Bukoba,TZ-05,TZ,AF,-1.332,31.8212,3784
BLA,General José Antonio Anzoategui International Airport,Barcelona,VE-B,VE,SA,10.111111,-64.692222,30
BLB,Panamá Pacífico International Airport,Panamá City,PA-10,PA,NA,8.91479,-79.599602,52
BLD,Boulder City Municipal Airport,Boulder City,US-NV,US,NA,35.947161,-114.858799,2201
BLE,Dala Airport,Borlange,SE-W,SE,EU,60.422001,15.5152,503
BLI,Bellingham International Airport,Bellingham,US-WA,US,NA,48.7928009,-122.538002,170
BLJ,Batna Mostefa Ben Boulaid Airport,Batna,DZ-05,DZ,AF,35.752102,6.30859,2697
BLL,Billund Airport,Billund,DK-83,DK,EU,55.740335,9.157019,247
BLQ,Bologna Guglielmo Marconi Airport,Bologna,IT-45,IT,EU,44.5354,11.2887,123
BLR,Kempegowda International Airport,Bangalore,IN-KA,IN,AS,13.1979,77.706299,3000
BLV,Scott AFB/Midamerica Airport,Belleville,US-IL,US,NA,38.5452,-89.835197,459
BLW,Beledweyne Airport,Beledweyne,SO-HI,SO,AF,4.766976,45.2388,559
BLZ,Chileka International Airport,Blantyre,MW-BL,MW,AF,-15.67910004,34.97399902,2555
BMA,Stockholm-Bromma Airport,Stockholm,SE-AB,SE,EU,59.35440063,17.94169998,47
BME,Broome International Airport,Broome,AU-WA,AU,OC,-17.948789,122.227407,56
BMI,Central Illinois Regional Airport at Bloomington-Normal,Bloomington/Normal,US-IL,US,NA,40.4771,-88.915901,871
BMK,Borkum Airport,Borkum,DE-NI,DE,EU,53.59639,6.709167,3
BMO,Banmaw Airport,Banmaw,MM-11,MM,AS,24.27044,97.2476,370
BMR,Baltrum Airport,Baltrum,DE-NI,DE,EU,53.72485,7.373257,7
BMU,Sultan Muhammad Salahuddin Airport,"Palibelo, Bima",ID-NB,ID,AS,-8.537184,118.685002,3
BMV,Buon Ma Thuot Airport,Buon Ma Thuot,VN-CH,VN,AS,12.66829968,108.1200027,1729
BMW,Bordj Badji Mokhtar Airport,Bordj Badji Mokhtar,DZ-52,DZ,AF,21.3778,0.92698,1303
BMY,Île Art - Waala Airport,Waala,NC-02,NC,OC,-19.720521,163.661077,306
BNA,Nashville International Airport,Nashville,US-TN,US,NA,36.1245,-86.6782,599
BNB,Boende Airport,Boende,CD-TU,CD,AF,-0.286652,20.883551,1168
BND,Bandar Abbas International Airport,Bandar Abbas,IR-22,IR,AS,27.21829987,56.37779999,22
BNE,Brisbane International Airport,Brisbane,AU-QLD,AU,OC,-27.38419914,153.1170044,13
BNI,Benin Airport,Benin,NG-ED,NG,AF,6.316979885,5.599500179,258
BNK,Ballina Byron Gateway Airport,Ballina,AU-NSW,AU,OC,-28.833236,153.561471,7
BNN,"Brønnøysund Airport, Brønnøy",Brønnøy,NO-18,NO,EU,65.461098,12.2175,25
BNS,Barinas Airport,Barinas,VE-E,VE,SA,8.615,-70.214167,615
BNX,Banja Luka International Airport,Mahovljani,BA-SRP,BA,EU,44.941399,17.297501,400
BNY,Bellona/Anua Airport,Anua,SB-RB,SB,OC,-11.30222222,159.7983333,60
BOB,Bora Bora Airport,Motu Mute,PF-U-A,PF,OC,-16.44440079,-151.7510071,10
BOC,Bocas del Toro International Airport,Isla Colón,PA-1,PA,NA,9.34085,-82.250801,10
BOD,Bordeaux-Mérignac Airport,Bordeaux/Mérignac,FR-NAQ,FR,EU,44.8283,-0.715556,162
BOG,El Dorado International Airport,Bogota,CO-DC,CO,SA,4.70159,-74.1469,8361
BOH,Bournemouth Airport,Bournemouth,GB-ENG,GB,EU,50.780483,-1.839576,38
BOI,Boise Air Terminal/Gowen Field,Boise,US-ID,US,NA,43.5644,-116.223,2871
BOJ,Burgas Airport,Burgas,BG-02,BG,EU,42.569917,27.515173,135
BOM,Chhatrapati Shivaji International Airport,Mumbai,IN-MM,IN,AS,19.08869934,72.86789703,39
BON,Flamingo International Airport,Kralendijk,BQ-BO,BQ,NA,12.131,-68.268501,20
BOO,Bodø Airport,Bodø,NO-18,NO,EU,67.269203,14.3653,42
BOR,Bokeo International Airport,Ton Phueng,LA-BK,LA,AS,20.323986,100.165392,1175
BOS,Logan International Airport,Boston,US-MA,US,NA,42.36197,-71.0079,20
BOT,Bosset Airport,Bosset,PG-WPD,PG,OC,-7.237257,141.1063222,80
BOY,Bobo Dioulasso Airport,Bobo Dioulasso,BF-HOU,BF,AF,11.16009998,-4.33096981,1511
BPE,Qinhuangdao Beidaihe Airport,Qinhuangdao (Changli),CN-13,CN,AS,39.666384,119.061384,46
BPL,Bole Alashankou Airport,Bole,CN-65,CN,AS,44.895461,82.30007,1253
BPN,Sultan Aji Muhammad Sulaiman Sepinggan International Airport,Balikpapan,ID-KI,ID,AS,-1.268342,116.89452,12
BPS,Porto Seguro Airport,Porto Seguro,BR-BA,BR,SA,-16.438426,-39.080584,169
BPT,Jack Brooks Regional Airport,Beaumont/Port Arthur,US-TX,US,NA,29.9508,-94.020699,15
BPX,Qamdo Bangda Airport,Bangda,CN-54,CN,AS,30.55360031,97.10829926,14219
BPY,Besalampy Airport,Besalampy,MG-M,MG,AF,-16.74453,44.482484,125
BQB,Busselton Margaret River Regional Airport,Busselton,AU-WA,AU,OC,-33.688423,115.401596,55
BQG,Bogorodskoye Airport,Bogorodskoye,RU-KHA,RU,AS,52.381041,140.449378,150
BQJ,Batagay Airport,Batagay,RU-SA,RU,AS,67.648003,134.695007,696
BQK,Brunswick Golden Isles Airport,Brunswick,US-GA,US,NA,31.258801,-81.466499,26
BQL,Boulia Airport,,AU-QLD,AU,OC,-22.91329956,139.8999939,542
BQN,Rafael Hernández International Airport,Aguadilla,PR-U-A,PR,NA,18.4949,-67.129402,237
BQS,Ignatyevo Airport,Blagoveschensk,RU-AMU,RU,AS,50.42539978,127.4120026,638
BQT,Brest Airport,Brest,BY-BR,BY,EU,52.108299,23.8981,468
BQU,J F Mitchell Airport,Bequia,VC-06,VC,NA,12.9884,-61.262001,15
BRA,Dom Ricardo Weberberger Airport,Barreiras,BR-BA,BR,SA,-12.0789,-45.008999,2451
BRB,Barreirinhas National Airport,Barreirinhas,BR-MA,BR,SA,-2.756644,-42.803187,40
BRC,San Carlos de Bariloche Airport,San Carlos de Bariloche,AR-R,AR,SA,-41.151199,-71.157501,2774
BRD,Brainerd Lakes Regional Airport,Brainerd,US-MN,US,NA,46.402861,-94.129727,1232
BRE,Bremen Airport,Bremen,DE-HB,DE,EU,53.046786,8.78932,14
BRI,Bari Karol Wojtyła International Airport,Bari,IT-75,IT,EU,41.138901,16.760599,193
BRK,Bourke Airport,,AU-NSW,AU,OC,-30.03919983,145.9519958,352
BRL,Southeast Iowa Regional Airport,Burlington,US-IA,US,NA,40.78319931,-91.12550354,698
BRM,Barquisimeto International Airport,Barquisimeto,VE-K,VE,SA,10.042747,-69.35862,2042
BRN,Bern Airport,Bern,CH-BE,CH,EU,46.912868,7.498512,1671
BRO,Brownsville South Padre Island International Airport,Brownsville,US-TX,US,NA,25.90679932,-97.42590332,22
BRQ,Brno-Tuřany Airport,Brno,CZ-JM,CZ,EU,49.15129852,16.69440079,778
BRR,Barra Airport,Eoligarry,GB-SCT,GB,EU,57.0228,-7.44306,5
BRS,Bristol Airport,Bristol,GB-ENG,GB,EU,51.382702,-2.71909,622
BRU,Brussels Airport,Zaventem,BE-VBR,BE,EU,50.901402,4.48444,175
BRW,Wiley Post Will Rogers Memorial Airport,Utqiaġvik,US-AK,US,NA,71.285402,-156.766008,44
BRX,Maria Montez International Airport,Barahona,DO-04,DO,NA,18.25149918,-71.12039948,10
BSA,Bosaso / Bender Qassim International Airport,Bosaso,SO-BR,SO,AF,11.275235,49.139231,3
BSB,Presidente Juscelino Kubitschek International Airport,Brasília,BR-DF,BR,SA,-15.869167,-47.920834,3497
BSC,José Celestino Mutis Airport,Bahía Solano,CO-CHO,CO,SA,6.20292,-77.3947,80
BSD,Baoshan Yunrui Airport,Baoshan (Longyang),CN-53,CN,AS,25.053301,99.168297,5453
BSG,Bata Airport,Bata,GQ-LI,GQ,AF,1.90547,9.80568,13
BSK,Biskra - Mohamed Khider Airport,Biskra,DZ-07,DZ,AF,34.793301,5.73823,289
BSL,EuroAirport Basel-Mulhouse-Freiburg,Saint-Louis,FR-GES,FR,EU,47.60068,7.521117,885
BSO,Basco Airport,Basco,PH-BTN,PH,AS,20.4513,121.980003,291
BSR,Basra International Airport,Basra,IQ-BA,IQ,AS,30.549101,47.662102,11
BSX,Pathein Airport,Pathein,MM-07,MM,AS,16.815201,94.7799,20
BTC,Batticaloa Airport,Batticaloa,LK-5,LK,AS,7.70576,81.678802,20
BTH,Hang Nadim International Airport,Batam,ID-KR,ID,AS,1.12103,104.119003,126
BTI,Barter Island Long Range Radar Station Airport,Barter Island,US-AK,US,NA,70.134003,-143.582001,2
BTJ,Sultan Iskandar Muda International Airport,Banda Aceh,ID-AC,ID,AS,5.525087,95.41997,65
BTK,Bratsk Airport,Bratsk,RU-IRK,RU,AS,56.37060165,101.697998,1610
BTM,Bert Mooney Airport,Butte,US-MT,US,NA,45.95479965,-112.4970016,5550
BTR,Baton Rouge Metropolitan Airport,Baton Rouge,US-LA,US,NA,30.533199,-91.149597,70
BTS,M. R. Štefánik Airport,Bratislava,SK-BL,SK,EU,48.1702,17.2127,436
BTT,Bettles Airport,Bettles,US-AK,US,NA,66.913902,-151.529007,647
BTU,Bintulu Airport,Bintulu,MY-13,MY,AS,3.123850107,113.0199966,74
BTV,Burlington International Airport,South Burlington,US-VT,US,NA,44.471901,-73.153297,335
BTW,Bersujud Airport,Batu Licin,ID-KS,ID,AS,-3.41241,115.995003,3
BUA,Buka Airport,Buka Island,PG-NSB,PG,OC,-5.422319889,154.6730042,11
BUC,Burketown Airport,,AU-QLD,AU,OC,-17.74860001,139.5339966,21
BUD,Budapest Liszt Ferenc International Airport,Budapest,HU-BU,HU,EU,47.43018,19.262393,495
BUF,Buffalo Niagara International Airport,Buffalo,US-NY,US,NA,42.940498,-78.732201,728
BUI,Bokondini Airport,Bokondini,ID-PP,ID,AS,-3.68455,138.677437,4550
BUN,Gerardo Tobar López Airport,Buenaventura,CO-VAC,CO,SA,3.81963,-76.9898,48
BUQ,Joshua Mqabuko Nkomo International Airport,Bulawayo,ZW-BU,ZW,AF,-20.021254,28.626296,4359
BUR,Hollywood Burbank Airport,Burbank,US-CA,US,NA,34.197703,-118.356378,778
BUS,Batumi International Airport,Batumi,GE-AJ,GE,AS,41.610298,41.599701,105
BUT,Bathpalathang Airport,Jakar,BT-33,BT,AS,27.5622,90.7471,8485
BUU,Muara Bungo Airport,Muara Bungo,ID-JA,ID,AS,-1.541635,102.181613,192
BUX,Bunia Airport,Bunia,CD-IT,CD,AF,1.565743,30.220685,4045
BUZ,Bushehr Airport,Bushehr,IR-18,IR,AS,28.94479942,50.83459854,68
BVA,Paris-Beauvais Airport,Tillé,FR-HDF,FR,EU,49.454399,2.11278,359
BVB,Atlas Brasil Cantanhede Airport,Boa Vista,BR-RR,BR,SA,2.845855,-60.690944,276
BVC,Rabil Airport,Rabil,CV-B,CV,AF,16.1364994,-22.88890076,69
BVE,Brive-Souillac Airport,Brive la Gaillarde,FR-NAQ,FR,EU,45.039722,1.485556,1016
BVG,Berlevåg Airport,Berlevåg,NO-56,NO,EU,70.871517,29.034097,42
BVH,Brigadeiro Camarão Airport,Vilhena,BR-RO,BR,SA,-12.6944,-60.098301,2018
BVI,Birdsville Airport,,AU-QLD,AU,OC,-25.89749908,139.3480072,159
BVJ,Bovanenkovo Airport,Bovanenkovo,RU-YAN,RU,AS,70.315278,68.333611,24
BVS,Breves Airport,Breves,BR-PA,BR,SA,-1.63653,-50.4436,98
BWA,Gautam Buddha International Airport,Siddharthanagar (Bhairahawa),NP-P5,NP,AS,27.505328,83.412594,358
BWI,Baltimore/Washington International Thurgood Marshall Airport,Baltimore,US-MD,US,NA,39.1754,-76.668297,146
BWK,Brač Airport,Gornji Humac,HR-17,HR,EU,43.284454,16.678362,1776
BWN,Brunei International Airport,Bandar Seri Begawan,BN-BM,BN,AS,4.9442,114.928001,73
BWO,Balakovo Airport,Balakovo,RU-SAR,RU,AS,51.858299,47.745602,95
BWT,Wynyard Airport,Burnie,AU-TAS,AU,OC,-40.997039,145.726,62
BWX,Banyuwangi Airport,"Rogojampi, Banyuwangi",ID-JI,ID,AS,-8.31015,114.3401,112
BXG,Bendigo Airport,,AU-VIC,AU,OC,-36.739399,144.330002,705
BXH,Balkhash Airport,Balkhash,KZ-KAR,KZ,AS,46.894246,75.004533,1446
BXR,Bam Airport,Bam,IR-08,IR,AS,29.0842,58.450001,3231
BXT,LNG Badak Airport,Bontang-Borneo Island,ID-KI,ID,AS,0.121656,117.476558,49
BXU,Bancasi Airport,Butuan,PH-BTC,PH,AS,8.9515,125.4788,141
BYK,Bouaké Airport,Bouaké,CI-VB,CI,AF,7.7388,-5.07367,1230
BYM,Carlos Manuel de Cespedes Airport,Bayamo,CU-12,CU,NA,20.3964,-76.621399,203
BYN,Bayankhongor Airport,Bayankhongor,MN-069,MN,AS,46.16329956,100.7040024,6085
BYO,Bonito Airport,Bonito,BR-MS,BR,SA,-21.2473,-56.452399,1180
BYR,Læsø Airport,Læsø,DK-81,DK,EU,57.277199,11.0001,25
BYW,Blakely Island Airport,Blakely Island,US-WA,US,NA,48.579162,-122.823844,66
BZE,Philip S. W. Goldson International Airport,Belize City,BZ-BZ,BZ,NA,17.539951,-88.303556,15
BZG,Bydgoszcz Ignacy Jan Paderewski Airport,Bydgoszcz,PL-KP,PL,EU,53.096802,17.977699,235
BZI,Balıkesir Airport,Balıkesir,TR-10,TR,AS,39.619301,27.926001,340
BZK,Bryansk Airport,Bryansk,RU-BRY,RU,EU,53.214199,34.176399,663
BZL,Barisal Airport,Barisal,BD-1,BD,AS,22.8010006,90.30120087,23
BZN,Bozeman Yellowstone International Airport,Bozeman,US-MT,US,NA,45.7775,-111.153,4473
BZO,Bolzano Airport,Bolzano (BZ),IT-32,IT,EU,46.460201,11.3264,789
BZR,Béziers-Vias Airport,Béziers/Vias,FR-OCC,FR,EU,43.323502,3.3539,56
BZV,Maya-Maya Airport,Brazzaville,CG-12,CG,AF,-4.251699924,15.25300026,1048
BZX,Bazhong Enyang Airport,Bazhong (Enyang),CN-51,CN,AS,31.73842,106.644872,1804
CAB,Cabinda Airport,Cabinda,AO-CAB,AO,AF,-5.596990108,12.18840027,66
CAC,Coronel Adalberto Mendes da Silva Airport,Cascavel,BR-PR,BR,SA,-25.000323,-53.501208,2481
CAE,Columbia Metropolitan Airport,Columbia,US-SC,US,NA,33.938801,-81.119499,236
CAF,Carauari Airport,Carauari,BR-AM,BR,SA,-4.871473,-66.897552,355
CAG,Cagliari Elmas Airport,Cagliari,IT-88,IT,EU,39.251499,9.05428,13
CAH,Cà Mau Airport,Ca Mau City,VN-SW,VN,AS,9.177667,105.177778,6
CAI,Cairo International Airport,Cairo,EG-C,EG,AF,30.111534,31.396694,322
CAJ,Canaima Airport,Canaima,VE-F,VE,SA,6.231989,-62.85485,1450
CAK,Akron Canton Regional Airport,Akron,US-OH,US,NA,40.91609955,-81.44219971,1228
CAL,Campbeltown Airport,Campbeltown,GB-SCT,GB,EU,55.43719864,-5.686389923,42
CAN,Guangzhou Baiyun International Airport,Guangzhou (Huadu),CN-44,CN,AS,23.392401,113.299004,50
CAP,Cap Haitien International Airport,Cap Haitien,HT-ND,HT,NA,19.726734,-72.199576,10
CAT,Cascais Airport,Cascais,PT-11,PT,EU,38.724998,-9.35523,325
CAU,Caruaru Airport,Caruaru,BR-PE,BR,SA,-8.28239,-36.0135,1891
CAW,Bartolomeu Lisandro Airport,Campos dos Goytacazes,BR-RJ,BR,SA,-21.698299,-41.301701,59
CAY,Cayenne – Félix Eboué Airport,Matoury,GF-CY,GF,SA,4.819964,-52.361326,26
CAZ,Cobar Airport,,AU-NSW,AU,OC,-31.53829956,145.7940063,724
CBB,Jorge Wilsterman International Airport,Cochabamba,BO-C,BO,SA,-17.42110062,-66.17710114,8360
CBH,Béchar Boudghene Ben Ali Lotfi Airport,Béchar,DZ-08,DZ,AF,31.64570045,-2.269860029,2661
CBO,Cotabato (Awang) Airport,Datu Odin Sinsuat,PH-MDN,PH,AS,7.164753,124.209938,189
CBQ,Margaret Ekpo International Airport,Calabar,NG-CR,NG,AF,4.976019859,8.347200394,210
CBR,Canberra Airport,Canberra,AU-ACT,AU,OC,-35.3069,149.195007,1886
CBT,Catumbela Airport,Catumbela,AO-BGU,AO,AF,-12.4792,13.4869,23
CCA,Chimore Airport,Chimore,BO-C,BO,SA,-16.976834,-65.145568,875
CCC,Jardines Del Rey Airport,Cayo Coco,CU-08,CU,NA,22.46100044,-78.32839966,13
CCF,Carcassonne Airport,Carcassonne/Salvaza,FR-OCC,FR,EU,43.216,2.30632,433
CCJ,Calicut International Airport,Calicut,IN-KL,IN,AS,11.1368,75.955299,342
CCK,Cocos (Keeling) Islands Airport,West Island,CC-U-A,CC,AS,-12.19134,96.833696,10
CCM,Forquilhinha - Criciúma  Airport,Criciúma,BR-SC,BR,SA,-28.725743,-49.424475,92
CCP,Carriel Sur Airport,Concepcion,CL-BI,CL,SA,-36.772701,-73.063103,26
CCR,Buchanan Field,Concord,US-CA,US,NA,37.9897,-122.056999,26
CCS,Maiquetía Simón Bolívar International Airport,Maiquetía,VE-X,VE,SA,10.601194,-66.991222,234
CCU,Netaji Subhash Chandra Bose International Airport,Kolkata,IN-WB,IN,AS,22.654699,88.446701,16
CCV,Craig Cove Airport,Craig Cove,VU-MAP,VU,OC,-16.264999,167.923996,69
CCZ,Chub Cay Airport,Chub Cay,BS-NS,BS,NA,25.417101,-77.880898,5
CDB,Cold Bay Airport,Cold Bay,US-AK,US,NA,55.207871,-162.725029,96
CDC,Cedar City Regional Airport,Cedar City,US-UT,US,NA,37.70100021,-113.098999,5622
CDE,Chengde Puning Airport,Chengde,CN-13,CN,AS,41.1225,118.073889,
CDG,Charles de Gaulle International Airport,"Paris (Roissy-en-France, Val-d'Oise)",FR-IDF,FR,EU,49.012798,2.55,392
CDP,Kadapa Airport,Kadapa,IN-AP,IN,AS,14.513154,78.769183,430
CDR,Chadron Municipal Airport,Chadron,US-NE,US,NA,42.837601,-103.095001,3297
CDT,Castellón-Costa Azahar Airport,Castellón de la Plana,ES-VC,ES,EU,40.213889,0.073333,1182
CDV,Merle K (Mudhole) Smith Airport,Cordova,US-AK,US,NA,60.491798,-145.477997,54
CEB,Mactan Cebu International Airport,Lapu-Lapu City,PH-CEB,PH,AS,10.309261,123.97974,31
CEC,Jack Mc Namara Field Airport,Crescent City,US-CA,US,NA,41.778929,-124.236403,61
CED,Ceduna Airport,,AU-SA,AU,OC,-32.13059998,133.7100067,77
CEE,Cherepovets Airport,Cherepovets,RU-VLG,RU,EU,59.27360153,38.01580048,377
CEI,Mae Fah Luang - Chiang Rai International Airport,Chiang Rai,TH-57,TH,AS,19.952299,99.882896,1280
CEK,Chelyabinsk Balandino Airport,Chelyabinsk,RU-CHE,RU,EU,55.305801,61.5033,769
CEL,Canela Airport,Canela,BR-RS,BR,SA,-29.370091,-50.831729,2746
CEM,Central Airport,Central,US-AK,US,NA,65.573815,-144.780707,937
CEN,Ciudad Obregón International Airport,Ciudad Obregón,MX-SON,MX,NA,27.39259911,-109.8330002,243
CEZ,Cortez Municipal Airport,Cortez,US-CO,US,NA,37.303001,-108.627998,5918
CFB,Cabo Frio Airport,Cabo Frio,BR-RJ,BR,SA,-22.921485,-42.071874,22
CFE,Clermont-Ferrand Auvergne Airport,"Aulnat, Puy-de-Dôme",FR-ARA,FR,EU,45.786701,3.16917,1090
CFG,Jaime Gonzalez Airport,Cienfuegos,CU-06,CU,NA,22.14999962,-80.41419983,102
CFK,Chlef Aboubakr Belkaid International Airport,Chlef,DZ-02,DZ,AF,36.217166,1.342237,463
CFN,Donegal Airport,Donegal,IE-DL,IE,EU,55.0442009,-8.340999603,30
CFR,Caen-Carpiquet Airport,"Carpiquet, Calvados",FR-NOR,FR,EU,49.17678,-0.454883,256
CFS,Coffs Harbour Airport,Coffs Harbour,AU-NSW,AU,OC,-30.320601,153.115997,18
CFU,Corfu Ioannis Kapodistrias International Airport,Kerkyra (Corfu),GR-F,GR,EU,39.602024,19.912038,6
CGA,Craig Seaplane Base,Craig,US-AK,US,NA,55.478802,-133.147995,
CGB,Marechal Rondon Airport,Cuiabá,BR-MT,BR,SA,-15.6529,-56.116699,617
CGD,Changde Taohuayuan Airport,Changde (Dingcheng),CN-43,CN,AS,28.9189,111.639999,128
CGH,Congonhas Airport,São Paulo,BR-SP,BR,SA,-23.627657,-46.654601,2631
CGI,Cape Girardeau Regional Airport,Cape Girardeau,US-MO,US,NA,37.2253,-89.570801,342
CGK,Soekarno-Hatta International Airport,Jakarta,ID-BT,ID,AS,-6.12556982,106.6559982,34
CGM,Camiguin Airport,Mambajao,PH-CAM,PH,AS,9.253894,124.709115,53
CGN,Cologne Bonn Airport,Köln (Cologne),DE-NW,DE,EU,50.865898,7.14274,302
CGO,Zhengzhou Xinzheng International Airport,Zhengzhou,CN-41,CN,AS,34.526497,113.849165,495
CGP,Shah Amanat International Airport,Chattogram (Chittagong),BD-2,BD,AS,22.249599,91.813301,12
CGQ,Changchun Longjia International Airport,Changchun,CN-22,CN,AS,43.996201,125.684998,706
CGR,Campo Grande Airport,Campo Grande,BR-MS,BR,SA,-20.469998,-54.673988,1833
CGY,Laguindingan International Airport,Laguindingan,PH-MSR,PH,AS,8.612203,124.456496,190
CHA,Chattanooga Metropolitan Airport (Lovell Field),Chattanooga,US-TN,US,NA,35.035301,-85.203796,683
CHC,Christchurch International Airport,Christchurch,NZ-CAN,NZ,OC,-43.489029,172.532065,123
CHE,Tallinn Linnahall Heliport,Tallinn,EE-37,EE,EU,59.448015,24.753313,23
CHG,Chaoyang Airport,"Shuangta, Chaoyang",CN-21,CN,AS,41.538101,120.434998,568
CHH,Chachapoyas Airport,Chachapoyas,PE-AMA,PE,SA,-6.201911,-77.856195,8333
CHM,FAP Lieutenant Jaime Andres de Montreuil Morales Airport,Chimbote,PE-ANC,PE,SA,-9.14961,-78.523804,69
CHO,Charlottesville Albemarle Airport,Charlottesville,US-VA,US,NA,38.1385994,-78.45290375,639
CHQ,Chania International Airport,Souda,GR-M,GR,EU,35.5317,24.1497,490
CHS,Charleston International Airport,Charleston,US-SC,US,NA,32.898602,-80.040497,46
CHT,Chatham Islands / Tuuta Airport,Te One,NZ-WGN,NZ,OC,-43.81189,-176.46514,43
CHU,Chuathbaluk Airport,Chuathbaluk,US-AK,US,NA,61.579102,-159.216003,244
CHX,Changuinola Captain Manuel Niño International Airport,Changuinola,PA-1,PA,NA,9.458962,-82.515062,19
CHY,Choiseul Bay Airport,Choiseul Bay,SB-CH,SB,OC,-6.711944,156.396111,
CIA,Ciampino–G. B. Pastine International Airport,Rome,IT-62,IT,EU,41.7994,12.5949,427
CID,The Eastern Iowa Airport,Cedar Rapids,US-IA,US,NA,41.884701,-91.7108,869
CIF,Chifeng Yulong Airport,Chifeng,CN-15,CN,AS,42.159723,118.840971,2018
CIH,Changzhi Wangcun Airport,Changzhi,CN-14,CN,AS,36.247501,113.125999,
CIJ,Capitán Aníbal Arab Airport,Cobija,BO-N,BO,SA,-11.04039955,-68.78299713,889
CIK,Chalkyitsik Airport,Chalkyitsik,US-AK,US,NA,66.644997,-143.740005,544
CIT,Shymkent Airport,Shymkent,KZ-YUZ,KZ,AS,42.36420059,69.47889709,1385
CIU,Chippewa County International Airport,Kincheloe,US-MI,US,NA,46.247707,-84.471379,800
CIW,Canouan Airport,Canouan,VC-06,VC,NA,12.699,-61.3424,11
CIX,Air Force Captain Jose A Quinones Gonzales International Airport,Chiclayo,PE-LAM,PE,SA,-6.78748,-79.828102,97
CIY,Comiso Airport,Comiso,IT-82,IT,EU,36.99583,14.60889,756
CJA,Mayor General FAP Armando Revoredo Iglesias Airport,Cajamarca,PE-CAJ,PE,SA,-7.13918,-78.489403,8781
CJB,Coimbatore International Airport,Coimbatore,IN-TN,IN,AS,11.02999973,77.04340363,1324
CJC,El Loa Airport,Calama,CL-AN,CL,SA,-22.498199,-68.903603,7543
CJJ,Cheongju International Airport/Cheongju Air Base (K-59/G-513),Cheongju,KR-43,KR,AS,36.717008,127.498741,191
CJL,Chitral Airport,Chitral,PK-KP,PK,AS,35.886213,71.799922,4920
CJM,Chumphon Airport,Chumphon,TH-86,TH,AS,10.7112,99.361702,18
CJN,Nusawiru Airport,Cijulang,ID-JB,ID,AS,-7.719895,108.488995,16
CJS,Abraham González International Airport,Ciudad Juárez,MX-CHH,MX,NA,31.63610077,-106.4290009,3904
CJU,Jeju International Airport,Jeju City,KR-49,KR,AS,33.512058,126.492548,118
CJZ,Pedro Vieira Moreira Airport,Cajazeiras,BR-PB,BR,SA,-6.8827,-38.61583,1099
CKB,North Central West Virginia Airport,Bridgeport,US-WV,US,NA,39.2966,-80.228104,1217
CKD,Crooked Creek Airport,Crooked Creek,US-AK,US,NA,61.870315,-158.137636,178
CKG,Chongqing Jiangbei International Airport,Chongqing,CN-50,CN,AS,29.712254,106.651895,1365
CKH,Chokurdakh Airport,Chokurdah,RU-SA,RU,AS,70.6231,147.901993,151
CKS,Carajás Airport,Parauapebas,BR-PA,BR,SA,-6.117841,-50.003372,2064
CKW,Christmas Creek Airport,Christmas Creek Mine,AU-WA,AU,OC,-22.3543,119.6426,1462
CKX,Chicken Airport,Chicken,US-AK,US,NA,64.066495,-141.951342,1640
CKY,Conakry International Airport,Conakry,GN-C,GN,AF,9.57689,-13.612,72
CKZ,Çanakkale Airport,Çanakkale,TR-17,TR,AS,40.13769913,26.42679977,23
CLD,McClellan-Palomar Airport,Carlsbad,US-CA,US,NA,33.1283,-117.279999,331
CLE,Cleveland Hopkins International Airport,Cleveland,US-OH,US,NA,41.411701,-81.8498,791
CLJ,Cluj Avram Iancu International Airport,Cluj-Napoca,RO-CJ,RO,EU,46.787425,23.684292,1039
CLL,Easterwood Field,College Station,US-TX,US,NA,30.5886,-96.3638,320
CLO,Alfonso Bonilla Aragon International Airport,Cali,CO-VAC,CO,SA,3.54322,-76.3816,3162
CLP,Clarks Point Airport,Clarks Point,US-AK,US,NA,58.833698,-158.529007,80
CLQ,Licenciado Miguel de la Madrid International Airport,Colima,MX-COL,MX,NA,19.277,-103.577002,2467
CLT,Charlotte Douglas International Airport,Charlotte,US-NC,US,NA,35.2140007,-80.94309998,748
CLV,Nelson Ribeiro Guimarães Airport,Caldas Novas,BR-GO,BR,SA,-17.725096,-48.606324,2307
CLY,Calvi-Sainte-Catherine Airport,Calvi/Sainte-Catherine,FR-COR,FR,EU,42.524444,8.793056,209
CMA,Cunnamulla Airport,,AU-QLD,AU,OC,-28.03000069,145.621994,630
CMB,Bandaranaike International Colombo Airport,Colombo,LK-1,LK,AS,7.180759907,79.88410187,30
CME,Ciudad del Carmen International Airport,Ciudad del Carmen,MX-CAM,MX,NA,18.65369987,-91.7990036,10
CMF,Chambéry Savoie Mont Blanc Airport,Viviers-du-Lac,FR-ARA,FR,EU,45.6381,5.88023,779
CMG,Corumbá International Airport,Corumbá,BR-MS,BR,SA,-19.01193,-57.672772,463
CMH,John Glenn Columbus International Airport,Columbus,US-OH,US,NA,39.998001,-82.891899,815
CMI,University of Illinois Willard Airport,Savoy,US-IL,US,NA,40.039819,-88.276249,755
CMN,Mohammed V International Airport,Casablanca,MA-06,MA,AF,33.3675,-7.58997,656
CMU,Chimbu Airport,Kundiawa,PG-CPK,PG,OC,-6.024290085,144.970993,4974
CMW,Ignacio Agramonte International Airport,Camaguey,CU-09,CU,NA,21.42029953,-77.84750366,413
CMX,Houghton County Memorial Airport,Hancock,US-MI,US,NA,47.16839981,-88.4890976,1095
CNB,Coonamble Airport,,AU-NSW,AU,OC,-30.980946,148.377833,604
CNC,Coconut Island Airport,,AU-QLD,AU,OC,-10.050139,143.070007,3
CND,Mihail Kogălniceanu International Airport,Mihail Kogălniceanu,RO-CT,RO,EU,44.362202,28.4883,353
CNF,Tancredo Neves International Airport,Belo Horizonte,BR-MG,BR,SA,-19.63571,-43.966928,2721
CNI,Changhai Airport,Dalian (Changhai),CN-21,CN,AS,39.266667,122.666944,80
CNJ,Cloncurry Airport,Cloncurry,AU-QLD,AU,OC,-20.66860008,140.5039978,616
CNM,Cavern City Air Terminal,Carlsbad,US-NM,US,NA,32.33750153,-104.2630005,3295
CNN,Kannur International Airport,Kannur,IN-KL,IN,AS,11.918614,75.547211,330
CNP,Neerlerit Inaat Airport,Neerlerit Inaat,GL-SE,GL,NA,70.743103,-22.650499,45
CNQ,Corrientes Airport,Corrientes,AR-W,AR,SA,-27.4455,-58.7619,202
CNS,Cairns International Airport,Cairns,AU-QLD,AU,OC,-16.878921,145.74948,10
CNX,Chiang Mai International Airport,Chiang Mai,TH-50,TH,AS,18.76679993,98.96260071,1036
CNY,Canyonlands Regional Airport,Moab,US-UT,US,NA,38.755001,-109.754997,4557
COD,Yellowstone Regional Airport,Cody,US-WY,US,NA,44.520199,-109.024002,5102
COK,Cochin International Airport,Kochi,IN-KL,IN,AS,10.151047,76.400838,30
COL,Coll Airport,Coll Island,GB-SCT,GB,EU,56.601898,-6.61778,21
COO,Cadjehoun Airport,Cotonou,BJ-AQ,BJ,AF,6.357230186,2.384350061,19
COR,Ingeniero Ambrosio Taravella Airport,Cordoba,AR-X,AR,SA,-31.323601,-64.208,1604
COS,City of Colorado Springs Municipal Airport,Colorado Springs,US-CO,US,NA,38.805801,-104.700996,6187
COU,Columbia Regional Airport,Columbia,US-MO,US,NA,38.8181,-92.219597,889
COV,Çukurova International Airport,Tarsus,TR-33,TR,AS,36.890908,35.070522,35
CPC,Aviador C. Campos Airport,Chapelco/San Martin de los Andes,AR-Q,AR,SA,-40.075401,-71.137299,2569
CPD,Coober Pedy Airport,Coober Pedy,AU-SA,AU,OC,-29.038312,134.722166,740
CPE,Ingeniero Alberto Acuña Ongay International Airport,Campeche,MX-CAM,MX,NA,19.81679916,-90.50029755,34
CPH,Copenhagen Kastrup Airport,Copenhagen,DK-84,DK,EU,55.61790085,12.65600014,17
CPO,Desierto de Atacama Airport,Copiapo,CL-AT,CL,SA,-27.26119995,-70.77919769,670
CPR,Casper-Natrona County International Airport,Casper,US-WY,US,NA,42.908001,-106.463997,5350
CPT,Cape Town International Airport,Cape Town,ZA-WC,ZA,AF,-33.96480179,18.60169983,151
CPV,Presidente João Suassuna Airport,Campina Grande,BR-PB,BR,SA,-7.269662,-35.896057,1646
CPX,Benjamin Rivera Noriega Airport,Culebra,PR-U-A,PR,NA,18.312954,-65.303893,49
CQW,Chongqing Xiannüshan Airport,Wulong,CN-50,CN,AS,29.465658,107.693664,1747
CRA,Craiova International Airport,Craiova,RO-DJ,RO,EU,44.3181,23.888599,626
CRD,General E. Mosconi Airport,Comodoro Rivadavia,AR-U,AR,SA,-45.7853,-67.4655,189
CRI,Colonel Hill Airport,Colonel Hill,BS-CK,BS,NA,22.7456,-74.182404,5
CRK,Clark International Airport / Clark Air Base,Mabalacat,PH-PAM,PH,AS,15.186,120.559998,484
CRL,Brussels South Charleroi Airport,Charleroi,BE-WHT,BE,EU,50.460982,4.457158,614
CRM,Catarman National Airport,Catarman,PH-NSA,PH,AS,12.50161,124.635258,6
CRP,Corpus Christi International Airport,Corpus Christi,US-TX,US,NA,27.770399,-97.501198,44
CRU,Lauriston Airport,Carriacou Island,GD-PA,GD,NA,12.4761,-61.472801,5
CRV,Crotone Sant'Anna Pythagoras Airport,Isola di Capo Rizzuto (KR),IT-78,IT,EU,38.9972,17.0802,522
CRW,Yeager Airport,Charleston,US-WV,US,NA,38.3731,-81.593201,981
CRZ,Türkmenabat International Airport,Türkmenabat,TM-L,TM,AS,38.930662,63.563982,649
CSA,Colonsay Airstrip,Colonsay,GB-SCT,GB,EU,56.057499,-6.24306,44
CSG,Columbus Metropolitan Airport,Columbus,US-GA,US,NA,32.5163002,-84.93890381,397
CSH,Solovki Airport,Solovetsky Islands,RU-ARK,RU,EU,65.029999,35.733334,60
CSK,Cap Skirring Airport,Cap Skirring,SN-ZG,SN,AF,12.39533,-16.748,52
CSX,Changsha Huanghua International Airport,Changsha (Changsha),CN-43,CN,AS,28.189199,113.220001,217
CSY,Cheboksary Airport,Cheboksary,RU-CU,RU,AS,56.090302,47.347301,558
CTA,Catania-Fontanarossa Airport,Catania,IT-82,IT,EU,37.466801,15.0664,39
CTC,Coronel Felipe Varela International Airport,Catamarca,AR-K,AR,SA,-28.593117,-65.7512,1522
CTD,Alonso Valderrama Airport,Chitré,PA-6,PA,NA,7.98784,-80.409837,33
CTG,Rafael Nuñez International Airport,Cartagena,CO-BOL,CO,SA,10.4424,-75.513,4
CTL,Charleville Airport,Charleville,AU-QLD,AU,OC,-26.41329956,146.2619934,1003
CTM,Chetumal International Airport,Chetumal,MX-ROO,MX,NA,18.504985,-88.328018,39
CTN,Cooktown Airport,,AU-QLD,AU,OC,-15.443649,145.183221,26
CTS,New Chitose Airport,Sapporo,JP-01,JP,AS,42.7752,141.692001,82
CTU,Chengdu Shuangliu International Airport,Chengdu (Shuangliu),CN-51,CN,AS,30.558257,103.945966,1625
CUA,Ciudad Constitución National Airport,Comondú,MX-BCS,MX,NA,25.053801,-111.614998,213
CUC,Camilo Daza International Airport,Cúcuta,CO-NSA,CO,SA,7.92757,-72.5115,1096
CUE,Mariscal Lamar Airport,Cuenca,EC-A,EC,SA,-2.88947,-78.984398,8306
CUF,Cuneo International Airport,Levaldigi (CN),IT-21,IT,EU,44.547001,7.62322,1267
CUK,Caye Caulker Airport,Caye Caulker,BZ-BZ,BZ,NA,17.735015,-88.032862,2
CUL,Bachigualato Federal International Airport,Culiacán,MX-SIN,MX,NA,24.76504,-107.475228,108
CUM,Cumaná (Antonio José de Sucre) Airport,,VE-R,VE,SA,10.450333,-64.13047,14
CUN,Cancún International Airport,Cancún,MX-ROO,MX,NA,21.039444,-86.874304,22
CUP,General Francisco Bermúdez Airport,Carúpano,VE-R,VE,SA,10.660014,-63.261681,33
CUQ,Coen Airport,Coen,AU-QLD,AU,OC,-13.761133,143.113311,532
CUR,Hato International Airport,Willemstad,CW-U-A,CW,NA,12.1889,-68.959801,29
CUU,General Roberto Fierro Villalobos International Airport,Chihuahua,MX-CHH,MX,NA,28.7029,-105.964996,4462
CUZ,Alejandro Velasco Astete International Airport,Cusco,PE-CUS,PE,SA,-13.53569984,-71.938797,10860
CVG,Cincinnati Northern Kentucky International Airport,Cincinnati / Covington,US-KY,US,NA,39.048801,-84.667801,896
CVM,General Pedro Jose Mendez International Airport,Ciudad Victoria,MX-TAM,MX,NA,23.70330048,-98.95649719,761
CVN,Clovis Municipal Airport,Clovis,US-NM,US,NA,34.426594,-103.078794,4216
CVQ,Carnarvon Airport,Carnarvon,AU-WA,AU,OC,-24.880091,113.670752,13
CVU,Corvo Airport,Corvo,PT-20,PT,EU,39.671501,-31.1136,
CWA,Central Wisconsin Airport,Mosinee,US-WI,US,NA,44.777448,-89.670238,1277
CWB,Afonso Pena Airport,Curitiba,BR-PR,BR,SA,-25.5285,-49.1758,2988
CWC,Chernivtsi International Airport,Chernivtsi,UA-77,UA,EU,48.25930023,25.98080063,826
CWJ,Cangyuan Washan Airport,Lincang (Cangyuan),CN-53,CN,AS,23.276331,99.373169,
CWL,Cardiff International Airport,Cardiff,GB-WLS,GB,EU,51.396702,-3.34333,220
CWS,Center Island Airport,Center Island,US-WA,US,NA,48.490046,-122.831612,115
CXB,Cox's Bazar Airport,Cox's Bazar,BD-2,BD,AS,21.45219994,91.96389771,12
CXH,Vancouver Harbour Water Aerodrome,Vancouver,CA-BC,CA,NA,49.291265,-123.11717,
CXI,Cassidy International Airport,Kiritimati,KI-L,KI,OC,1.986278,-157.350011,5
CXJ,Hugo Cantergiani Regional Airport,Caxias Do Sul,BR-RS,BR,SA,-29.197183,-51.187647,2472
CXP,Tunggul Wulung Airport,Cilacap,ID-JT,ID,AS,-7.64506,109.033997,69
CXR,Cam Ranh International Airport / Cam Ranh Air Base,Cam Ranh,VN-SCC,VN,AS,11.9982,109.219002,40
CYA,Antoine-Simon International Airport,Les Cayes,HT-SD,HT,NA,18.271099,-73.7883,203
CYB,Charles Kirkconnell International Airport,West End,KY-CB,KY,NA,19.687,-79.882797,8
CYC,Caye Chapel Airport,Caye Chapel,BZ-BZ,BZ,NA,17.683792,-88.044985,3
CYF,Chefornak Airport,Chefornak,US-AK,US,NA,60.136667,-164.279167,49
CYI,Chiayi Airport,Shuishang,TW-CYQ,TW,AS,23.462577,120.390544,85
CYM,Chatham Seaplane Base,Chatham,US-AK,US,NA,57.5149,-134.945999,
CYO,Vilo Acuña International Airport,Cayo Largo del Sur,CU-99,CU,NA,21.61650085,-81.54599762,10
CYP,Calbayog Airport,Calbayog City,PH-WSA,PH,AS,12.072574,124.54508,12
CYS,Cheyenne Regional Jerry Olson Field,Cheyenne,US-WY,US,NA,41.155701,-104.811997,6159
CYT,Yakataga Airport,Yakataga,US-AK,US,NA,60.080974,-142.494541,12
CYU,Cuyo Airport,Cuyo,PH-PLW,PH,AS,10.8581,121.069,
CYX,Cherskiy Airport,Cherskiy,RU-SA,RU,AS,68.74060059,161.3379974,20
CYZ,Cauayan Airport,Cauayan City,PH-ISA,PH,AS,16.92989922,121.7529984,200
CZE,José Leonardo Chirinos Airport,Coro,VE-I,VE,SA,11.414944,-69.680901,52
CZH,Corozal Airport,Corozal,BZ-CZL,BZ,NA,18.3822,-88.411903,40
CZL,Mohamed Boudiaf International Airport,Constantine,DZ-25,DZ,AF,36.27600098,6.620389938,2265
CZM,Cozumel International Airport,Cozumel,MX-ROO,MX,NA,20.514922,-86.928538,15
CZS,Cruzeiro do Sul Airport,Cruzeiro Do Sul,BR-AC,BR,SA,-7.59991,-72.769501,637
CZU,Las Brujas Airport,Corozal,CO-SUC,CO,SA,9.33274,-75.2856,528
CZX,Changzhou Benniu International Airport,Changzhou,CN-32,CN,AS,31.920485,119.77546,33
DAB,Daytona Beach International Airport,Daytona Beach,US-FL,US,NA,29.179899,-81.058098,34
DAC,Hazrat Shahjalal International Airport,Dhaka,BD-3,BD,AS,23.843347,90.397783,30
DAD,Da Nang International Airport,Da Nang,VN-SCC,VN,AS,16.0439,108.198997,33
DAL,Dallas Love Field,Dallas,US-TX,US,NA,32.847099,-96.851799,487
DAM,Damascus International Airport,Damascus,SY-DI,SY,AS,33.41149902,36.5155983,2020
DAR,Julius Nyerere International Airport,Dar es Salaam,TZ-02,TZ,AF,-6.87811,39.202599,182
DAT,Datong Yungang Airport,Datong,CN-14,CN,AS,40.061614,113.480032,3442
DAU,Daru Airport,Daru,PG-WPD,PG,OC,-9.08676,143.207993,20
DAV,Enrique Malek International Airport,David,PA-4,PA,NA,8.391,-82.434998,89
DAX,Dachuan Airport,Dazhou (Daxian),CN-51,CN,AS,31.1302,107.4295,
DAY,James M Cox Dayton International Airport,Dayton,US-OH,US,NA,39.902401,-84.219398,1009
DBA,Dalbandin Airport,Dalbandin,PK-BA,PK,AS,28.87829971,64.39980316,2800
DBB,El Alamein International Airport,El Alamein,EG-MT,EG,AF,30.924324,28.46161,154
DBC,Baicheng Chang'an Airport,Baicheng,CN-22,CN,AS,45.505278,123.019722,480
DBO,Dubbo City Regional Airport,Dubbo,AU-NSW,AU,OC,-32.21670151,148.5749969,935
DBQ,Dubuque Regional Airport,Dubuque,US-IA,US,NA,42.402,-90.709503,1077
DBR,Darbhanga Airport,Darbhanga,IN-BR,IN,AS,26.192801,85.916901,156
DBV,Dubrovnik Ruđer Bošković Airport,Čilipi,HR-19,HR,EU,42.562247,18.265543,527
DCA,Ronald Reagan Washington National Airport,Washington,US-DC,US,NA,38.8521,-77.037697,15
DCF,Canefield Airport,Canefield,DM-10,DM,NA,15.336693,-61.392108,13
DCM,Castres-Mazamet Airport,Castres/Mazamet,FR-OCC,FR,EU,43.556301,2.28918,788
DCY,Daocheng Yading Airport,Garzê (Daocheng),CN-51,CN,AS,29.31632,100.060317,14472
DDC,Dodge City Regional Airport,Dodge City,US-KS,US,NA,37.76340103,-99.96559906,2594
DDG,Dandong Langtou Airport,Dandong (Zhenxing),CN-21,CN,AS,40.025453,124.28669,30
DDR,Rikaze Dingri Airport,Xigazê (Dingri),CN-54,CN,AS,28.604567,86.798,14108
DEA,Dera Ghazi Khan Airport,Dera Ghazi Khan,PK-PB,PK,AS,29.96100044,70.48590088,492
DEB,Debrecen International Airport,Debrecen,HU-HB,HU,EU,47.488899,21.615299,359
DEC,Decatur Airport,Decatur,US-IL,US,NA,39.83459854,-88.86569977,682
DED,Dehradun Jolly Grant Airport,Dehradun (Jauligrant),IN-UT,IN,AS,30.189243,78.176651,1831
DEE,Yuzhno-Kurilsk Mendeleyevo Airport,Yuzhno-Kurilsk,RU-SAK,RU,AS,43.961066,145.684977,584
DEF,Dezful Airport,Dezful,IR-06,IR,AS,32.434399,48.397598,474
DEL,Indira Gandhi International Airport,New Delhi,IN-DL,IN,AS,28.55563,77.09519,777
DEM,Dembidollo Airport,Dembidollo,ET-OR,ET,AF,8.554,34.858002,5200
DEN,Denver International Airport,Denver,US-CO,US,NA,39.86169815,-104.6729965,5431
DEX,Nop Goliat Dekai Airport,Dekai,ID-PP,ID,AS,-4.8557,139.482006,198
DFW,Dallas Fort Worth International Airport,Dallas-Fort Worth,US-TX,US,NA,32.896801,-97.038002,607
DGA,Dangriga Airport,Dangriga,BZ-SC,BZ,NA,16.98251,-88.230988,10
DGH,Deoghar Airport,Deoghar,IN-JH,IN,AS,24.446842,86.704955,361
DGO,General Guadalupe Victoria International Airport,Durango,MX-DUR,MX,NA,24.125468,-104.527938,6104
DGT,Sibulan Airport,Dumaguete City,PH-NER,PH,AS,9.334183,123.30191,15
DHB,Deer Harbor SPB,Deer Harbor,US-WA,US,NA,48.616667,-123.002778,0
DHM,Kangra Airport,Kangra,IN-HP,IN,AS,32.164902,76.263018,2525
DHN,Dothan Regional Airport,Dothan,US-AL,US,NA,31.32130051,-85.44960022,401
DIB,Dibrugarh Airport,Dibrugarh,IN-AS,IN,AS,27.48390007,95.01689911,362
DIE,Arrachart Airport,Antisiranana,MG-D,MG,AF,-12.3494,49.291698,374
DIG,Diqing Shangri-La Airport,Diqing (Shangri-La),CN-53,CN,AS,27.7936,99.6772,10761
DIJ,Dijon-Bourgogne Airport,"Ouges, Côte-d'Or",FR-BFC,FR,EU,47.268902,5.09,726
DIK,Dickinson Theodore Roosevelt Regional Airport,Dickinson,US-ND,US,NA,46.797533,-102.801905,2592
DIL,Presidente Nicolau Lobato International Airport,Dili,TL-DI,TL,AS,-8.546562,125.524507,154
DIN,Dien Bien Phu Airport,Dien Bien Phu,VN-NW,VN,AS,21.39749908,103.0080032,1611
DIO,Diomede Heliport,Diomede,US-AK,US,NA,65.758367,-168.953676,20
DIR,Aba Tenna Dejazmach Yilma International Airport,Dire Dawa,ET-DD,ET,AF,9.624699593,41.85419846,3827
DIU,Diu Airport,Diu,IN-DH,IN,AS,20.714185,70.921855,31
DIY,Diyarbakır Airport,Diyarbakır,TR-21,TR,AS,37.893902,40.201,2251
DJB,Sultan Thaha Airport,Jambi,ID-JA,ID,AS,-1.638685,103.645063,82
DJE,Djerba Zarzis International Airport,Mellita,TN-82,TN,AF,33.875,10.7755,19
DJG,Djanet Inedbirene Airport,Djanet,DZ-56,DZ,AF,24.292801,9.45244,3176
DJJ,Dortheys Hiyo Eluay International Airport,Sentani,ID-PA,ID,AS,-2.579627,140.519857,289
DLA,Douala International Airport,Douala,CM-LT,CM,AF,4.006080151,9.719479561,33
DLC,Dalian Zhoushuizi International Airport,Dalian (Ganjingzi),CN-21,CN,AS,38.965719,121.538477,107
DLE,Dole-Jura Airport,"Tavaux, Jura",FR-BFC,FR,EU,47.038955,5.427589,645
DLG,Dillingham Airport,Dillingham,US-AK,US,NA,59.04470062,-158.5050049,81
DLH,Duluth International Airport,Duluth,US-MN,US,NA,46.842098,-92.193604,1428
DLI,Lien Khuong Airport,Da Lat,VN-CH,VN,AS,11.750556,108.366997,3156
DLM,Dalaman International Airport,Dalaman,TR-48,TR,AS,36.71310043,28.79249954,20
DLR,Dalnerechensk Airport,Dalnerechensk,RU-PRI,RU,EU,45.877949,133.735822,272
DLU,Dali Fengyi Airport,Dali (Xiaguan),CN-53,CN,AS,25.649401,100.319,7050
DLZ,Dalanzadgad Airport,Dalanzadgad,MN-053,MN,AS,43.608628,104.367734,4787
DMB,Taraz Airport,Taraz,KZ-ZHA,KZ,AS,42.85359955,71.3035965,2184
DMD,Doomadgee Airport,,AU-QLD,AU,OC,-17.9403,138.822006,153
DME,Domodedovo International Airport,Moscow,RU-MOS,RU,EU,55.408798,37.9063,588
DMK,Don Mueang International Airport,Bangkok,TH-10,TH,AS,13.9126,100.607002,9
DMM,King Fahd International Airport,Ad Dammam,SA-04,SA,AS,26.471201,49.797901,72
DMU,Dimapur Airport,Dimapur,IN-NL,IN,AS,25.88389969,93.77110291,487
DND,Dundee Airport,Dundee,GB-SCT,GB,EU,56.45249939,-3.02583003,17
DNH,Dunhuang Mogao International Airport,Dunhuang,CN-62,CN,AS,40.161098,94.809196,
DNK,Dnipro International Airport,Dnipro,UA-12,UA,EU,48.357201,35.100601,481
DNR,Dinard-Pleurtuit-Saint-Malo Airport,"Pleurtuit, Ille-et-Vilaine",FR-BRE,FR,EU,48.5877,-2.07996,219
DNZ,Çardak Airport,Denizli,TR-20,TR,AS,37.78559875,29.70129967,2795
DOD,Dodoma Airport,Dodoma,TZ-03,TZ,AF,-6.17044,35.752602,3673
DOG,Dongola Airport,Dongola,SD-01,SD,AF,19.15390015,30.43009949,772
DOH,Hamad International Airport,Doha,QA-DA,QA,AS,25.273056,51.608056,13
DOL,Deauville-Normandie Airport,"Deauville, Calvados",FR-NOR,FR,EU,49.365237,0.154481,479
DOM,Douglas-Charles Airport,Marigot,DM-02,DM,NA,15.547,-61.299999,73
DOP,Dolpa Airport,Dolpa,NP-P6,NP,AS,28.985659,82.818703,8200
DOY,Dongying Shengli Airport,Dongying (Kenli),CN-37,CN,AS,37.50137,118.789863,15
DPL,Dipolog Airport,Dipolog,PH-ZAN,PH,AS,8.601983,123.341875,12
DPO,Devonport Airport,Devonport,AU-TAS,AU,OC,-41.16970062,146.4299927,33
DPS,Denpasar I Gusti Ngurah Rai International Airport,"Kuta, Badung",ID-BA,ID,AS,-8.748409,115.167123,14
DPT,Deputatskiy Airport,Deputatskiy,RU-SA,RU,EU,69.392503,139.890012,950
DQA,Daqing Sartu Airport,Daqing,CN-23,CN,AS,46.750883,125.138642,496
DQM,Duqm International Airport,Duqm,OM-WU,OM,AS,19.501944,57.634167,364
DRG,Deering Airport,Deering,US-AK,US,NA,66.068901,-162.766914,21
DRJ,Drietabbetje Airport,Drietabbetje,SR-SI,SR,SA,4.111359,-54.672766,236
DRO,Durango La Plata County Airport,Durango,US-CO,US,NA,37.151501,-107.753998,6685
DRP,Bicol International Airport,Legazpi,PH-ALB,PH,AS,13.111915,123.676829,319
DRS,Dresden Airport,Dresden,DE-SN,DE,EU,51.134123,13.767831,755
DRV,Dharavandhoo Airport,Baa Atoll,MV-20,MV,AS,5.1561,73.1302,6
DRW,Darwin International Airport / RAAF Darwin,Darwin,AU-NT,AU,OC,-12.41497,130.88185,103
DSD,La Désirade Airport,Grande Anse,GP-U-A,GP,NA,16.296902,-61.0844,10
DSE,Kombolcha Airport,Dessie,ET-AM,ET,AF,11.10975,39.725911,6120
DSI,Destin Executive Airport,Destin,US-FL,US,NA,30.400101,-86.471497,23
DSM,Des Moines International Airport,Des Moines,US-IA,US,NA,41.534,-93.663101,958
DSN,Ordos Ejin Horo Airport,Ordos,CN-15,CN,AS,39.493514,109.8599,4557
DSO,Sondok Airport,Sŏndŏng-ni,KP-08,KP,AS,39.745201,127.473999,12
DSS,Blaise Diagne International Airport,Dakar,SN-DK,SN,AF,14.670878,-17.072829,290
DTB,Silangit Airport,Siborong-Borong,ID-SU,ID,AS,2.25973,98.991898,4700
DTD,Datadawai Airport,Datadawai-Borneo Island,ID-KI,ID,AS,0.807028,114.529052,508
DTM,Dortmund Airport,Dortmund,DE-NW,DE,EU,51.518299,7.61224,425
DTR,Decatur Shores Airport,Decatur,US-WA,US,NA,48.500171,-122.813973,38
DTU,Wudalianchi Dedu Airport,Heihe,CN-23,CN,AS,48.441037,126.128374,984
DTW,Detroit Metropolitan Wayne County Airport,Detroit,US-MI,US,NA,42.21377,-83.353786,645
DUB,Dublin Airport,Dublin,IE-D,IE,EU,53.428713,-6.262121,242
DUD,Dunedin International Airport,Dunedin,NZ-OTA,NZ,OC,-45.928101,170.197998,4
DUE,Dundo Airport,Chitato,AO-LNO,AO,AF,-7.400889874,20.81850052,2451
DUJ,DuBois Regional Airport,Dubois,US-PA,US,NA,41.17829895,-78.8986969,1817
DUM,Pinang Kampai Airport,Dumai,ID-RI,ID,AS,1.609114,101.433492,55
DUR,King Shaka International Airport,Durban,ZA-NL,ZA,AF,-29.61444444,31.11972222,295
DUS,Düsseldorf Airport,Düsseldorf,DE-NW,DE,EU,51.289501,6.76678,147
DUT,Tom Madsen (Dutch Harbor) Airport,Unalaska,US-AK,US,NA,53.89881,-166.544996,22
DVL,Devils Lake Regional Airport,Devils Lake,US-ND,US,NA,48.115454,-98.908796,1456
DVO,Francisco Bangoy International Airport,Davao,PH-DVO,PH,AS,7.12552,125.646004,96
DWB,Soalala Airport,Soalala,MG-M,MG,AF,-16.10169,45.358837,141
DWC,Al Maktoum International Airport,Jebel Ali,AE-DU,AE,AS,24.896356,55.161389,114
DWD,King Salman Abdulaziz Airport,Dawadmi,SA-01,SA,AS,24.4499,44.121201,3026
DWO,Diyawanna Oya Seaplane Base,Sri Jayawardenepura Kotte,LK-1,LK,AS,6.906585,79.909,10
DXB,Dubai International Airport,Dubai,AE-DU,AE,AS,25.25279999,55.36439896,62
DXJ,Xiangxi Biancheng Airport,Xiangxi,CN-43,CN,AS,28.4972,109.5218,
DYG,Zhangjiajie Hehua International Airport,Zhangjiajie (Yongding),CN-43,CN,AS,29.1028,110.443001,8530
DYR,Ugolny Yuri Ryktheu Airport,Anadyr,RU-CHU,RU,AS,64.734902,177.740997,194
DYU,Dushanbe International Airport,Dushanbe,TJ-DU,TJ,AS,38.543746,68.822977,2575
DZA,Dzaoudzi Pamandzi International Airport,Dzaoudzi,YT-U-A,YT,AF,-12.809319,45.281815,23
DZH,Dazhou Jinya Airport,Dazhou (Dachuan),CN-51,CN,AS,31.048815,107.435646,1342
DZN,Zhezkazgan National Airport,Zhezkazgan,KZ-ULY,KZ,AS,47.708953,67.738094,1250
EAA,Eagle Airport,Eagle,US-AK,US,NA,64.778003,-141.150455,908
EAM,Najran Domestic Airport,Najran,SA-10,SA,AS,17.611401,44.419201,3982
EAR,Kearney Regional Airport,Kearney,US-NE,US,NA,40.727001,-99.006798,2131
EAS,San Sebastián Airport,Hondarribia,ES-PV,ES,EU,43.356499,-1.79061,16
EAT,Pangborn Memorial Airport,Wenatchee,US-WA,US,NA,47.398899,-120.207001,1249
EAU,Chippewa Valley Regional Airport,Eau Claire,US-WI,US,NA,44.86579895,-91.48429871,913
EAX,Eduard Alexander Gummels Airport,Kwatta,SR-PM,SR,SA,5.8604,-55.192,49
EBA,Marina di Campo Airport,Campo nell'Elba (LI),IT-52,IT,EU,42.760871,10.239811,31
EBB,Entebbe International Airport,Kampala,UG-C,UG,AF,0.042386,32.443501,3782
EBD,El-Obeid Airport,El-Obeid,SD-09,SD,AF,13.1532,30.2327,1927
EBJ,Esbjerg Airport,Esbjerg,DK-83,DK,EU,55.525902,8.5534,97
EBL,Erbil International Airport,Arbil,IQ-AR,IQ,AS,36.23759842,43.96319962,1341
ECN,Nicosia (Lefkoşa) Ercan International Airport,Tymbou (Kirklar),CY-02,CY,AS,35.152337,33.506584,404
ECP,Northwest Florida Beaches International Airport,Panama City Beach,US-FL,US,NA,30.357106,-85.795414,69
EDA,Edna Bay Seaplane Base,Edna Bay,US-AK,US,NA,55.949653,-133.661012,
EDI,Edinburgh Airport,Edinburgh,GB-SCT,GB,EU,55.950145,-3.372288,135
EDL,Eldoret International Airport,Eldoret,KE-700,KE,AF,0.4044579864,35.23889923,6941
EDO,Balıkesir Koca Seyit Airport,Edremit,TR-10,TR,AS,39.5546,27.0138,50
EDR,Pormpuraaw Airport,Pormpuraaw,AU-QLD,AU,OC,-14.896451,141.60908,10
EEK,Eek Airport,Eek,US-AK,US,NA,60.213173,-162.044048,12
EFL,Kefallinia Airport,Kefallinia Island,GR-F,GR,EU,38.12009811,20.50049973,59
EGC,Bergerac Dordogne Périgord Airport,Bergerac/Roumanière,FR-NAQ,FR,EU,44.825298,0.518611,171
EGE,Eagle County Regional Airport,Eagle,US-CO,US,NA,39.64260101,-106.9179993,6548
EGO,Belgorod International Airport,Belgorod,RU-BEL,RU,EU,50.64379883,36.59009933,735
EGS,Egilsstaðir Airport,Egilsstaðir,IS-7,IS,EU,65.28330231,-14.40139961,76
EGX,Egegik Airport,Egegik,US-AK,US,NA,58.184386,-157.374873,92
EHU,Ezhou Huahu Airport,Ezhou,CN-42,CN,AS,30.341178,115.03926,86
EIE,Yeniseysk Airport,Yeniseysk,RU-KYA,RU,AS,58.474201,92.112503,253
EIK,Yeysk Airport,Yeysk,RU-KDA,RU,EU,46.68,38.21,60
EIN,Eindhoven Airport,Eindhoven,NL-NB,NL,EU,51.45009995,5.374529839,74
EIS,Terrance B. Lettsome International Airport,Beef Island,VG-U-A,VG,NA,18.445492,-64.541707,15
EJA,Yariguíes Airport,Barrancabermeja,CO-SAN,CO,SA,7.02433,-73.8068,412
EJH,Al Wajh Domestic Airport,Al Wajh,SA-07,SA,AS,26.198601,36.476398,66
EJT,Enejit Airport,Enejit Island,MH-MIL,MH,OC,6.0404,171.9846,30
EKO,Elko Regional Airport,Elko,US-NV,US,NA,40.82490158,-115.7919998,5140
EKS,Shakhtyorsk Airport,Shakhtyorsk,RU-SAK,RU,AS,49.1903,142.082993,50
ELC,Elcho Island Airport,Elcho Island,AU-NT,AU,OC,-12.01939964,135.5709991,101
ELD,South Arkansas Regional Airport at Goodwin Field,El Dorado,US-AR,US,NA,33.221001,-92.813301,277
ELF,El Fasher Airport,El Fasher,SD-02,SD,AF,13.61489964,25.32460022,2393
ELG,El Golea Airport,El Menia,DZ-50,DZ,AF,30.580732,2.861595,1306
ELH,North Eleuthera Airport,North Eleuthera,BS-HI,BS,NA,25.47489929,-76.6835022,13
ELI,Elim Airport,Elim,US-AK,US,NA,64.6147,-162.272003,162
ELM,Elmira Corning Regional Airport,Elmira/Corning,US-NY,US,NA,42.15990067,-76.89160156,954
ELP,El Paso International Airport,El Paso,US-TX,US,NA,31.807199,-106.377998,3959
ELQ,Gassim Airport,Buraidah,SA-05,SA,AS,26.302799,43.774399,2126
ELS,King Phalo Airport,East London,ZA-EC,ZA,AF,-33.035599,27.825899,435
ELU,Guemar Airport - مطار قمار بالوادي,Guemar,DZ-39,DZ,AF,33.511398,6.77679,203
ELV,Elfin Cove Seaplane Base,Elfin Cove,US-AK,US,NA,58.19520187,-136.3470001,0
EMA,East Midlands Airport,Nottingham,GB-ENG,GB,EU,52.8311,-1.32806,306
EMD,Emerald Airport,Emerald,AU-QLD,AU,OC,-23.56749916,148.1790009,624
EME,Emden Airport,Emden,DE-NI,DE,EU,53.391109,7.2275,3
EMK,Emmonak Airport,Emmonak,US-AK,US,NA,62.78609848,-164.4909973,13
ENA,Kenai Municipal Airport,Kenai,US-AK,US,NA,60.570946,-151.245174,99
ENE,H. Hasan Aroeboesman (Ende) Airport,Ende,ID-NT,ID,AS,-8.849114,121.66101,49
ENF,Enontekio Airport,Enontekio,FI-10,FI,EU,68.36260223,23.42429924,1005
ENH,Enshi Xujiaping Airport,Enshi (Enshi),CN-42,CN,AS,30.320299,109.485001,1605
ENI,El Nido Airport,El Nido,PH-PLW,PH,AS,11.202399,119.416087,
ENO,Aeropuerto Internacional Tte. Amín Ayub González,Encarnación,PY-7,PY,SA,-27.227537,-55.837584,659
ENT,Eniwetok Airport,Eniwetok Atoll,MH-ENI,MH,OC,11.34070015,162.3280029,13
ENU,Akanu Ibiam International Airport,Enegu,NG-EN,NG,AF,6.474269867,7.56196022,466
ENY,Yan'an Nanniwan Airport,Yan'an (Baota),CN-61,CN,AS,36.479413,109.464083,
EOH,Enrique Olaya Herrera Airport,Medellín,CO-ANT,CO,SA,6.219686,-75.590597,4949
EOI,Eday Airport,Eday,GB-SCT,GB,EU,59.19060135,-2.772219896,10
EPR,Esperance Airport,Esperance,AU-WA,AU,OC,-33.684399,121.822998,470
EPU,Pärnu Airport,Pärnu,EE-67,EE,EU,58.41899872,24.4727993,47
EQS,Esquel Brigadier Antonio Parodi International Airport,Esquel,AR-U,AR,SA,-42.908001,-71.139503,2621
ERC,Erzincan Airport,Erzincan,TR-24,TR,AS,39.71020126,39.52700043,3783
ERF,Erfurt-Weimar Airport,Erfurt,DE-TH,DE,EU,50.979801,10.9581,1036
ERH,Moulay Ali Cherif Airport,Errachidia,MA-08,MA,AF,31.94750023,-4.398330212,3428
ERI,Erie International Tom Ridge Field,Erie,US-PA,US,NA,42.083127,-80.173867,732
ERL,Erenhot Saiwusu International Airport,Erenhot,CN-15,CN,AS,43.4225,112.096667,3301
ERS,Eros Airport,Windhoek,NA-KH,NA,AF,-22.61219978,17.08040047,5575
ERZ,Erzurum International Airport,Erzurum,TR-25,TR,AS,39.956501,41.1702,5763
ESB,Esenboğa International Airport,Ankara,TR-06,TR,AS,40.128101,32.995098,3125
ESC,Delta County Airport,Escanaba,US-MI,US,NA,45.723199,-87.088623,609
ESD,Orcas Island Airport,Eastsound,US-WA,US,NA,48.708199,-122.910004,31
ESL,Elista Airport,Elista,RU-KL,RU,EU,46.37390137,44.33089828,501
ESM,Carlos Concha Torres International Airport,Tachina,EC-E,EC,SA,0.978519,-79.626602,32
ESR,Ricardo García Posada Airport,El Salvador,CL-AT,CL,SA,-26.3111,-69.765198,5240
ESU,Essaouira-Mogador Airport,Essaouira,MA-07,MA,AF,31.397499,-9.68167,384
ETM,Ramon International Airport,Eilat,IL-D,IL,AS,29.727009,35.014116,288
ETR,Santa Rosa - Artillery Colonel Victor Larrea International Airport,Santa Rosa,EC-O,EC,SA,-3.441986,-79.996957,20
ETZ,Metz-Nancy-Lorraine Airport,Goin,FR-GES,FR,EU,48.982101,6.25132,870
EUA,Kaufana Airport,Eua Island,TO-01,TO,OC,-21.37829971,-174.9579926,325
EUG,Mahlon Sweet Field,Eugene,US-OR,US,NA,44.12459946,-123.211998,374
EUN,Hassan I Airport,El Aaiún,EH-U-A,EH,AF,27.142467,-13.224947,207
EUX,F. D. Roosevelt Airport,Oranjestad,BQ-SE,BQ,NA,17.4965,-62.979401,129
EVE,"Harstad/Narvik Airport, Evenes",Evenes,NO-18,NO,EU,68.49130249,16.67810059,84
EVG,Sveg Airport,Sveg,SE-Z,SE,EU,62.047798,14.4229,1178
EVN,Zvartnots International Airport,Yerevan,AM-ER,AM,AS,40.14730072,44.39590073,2838
EVV,Evansville Regional Airport,Evansville,US-IN,US,NA,38.03699875,-87.53240204,418
EWB,New Bedford Regional Airport,New Bedford,US-MA,US,NA,41.67610168,-70.95690155,80
EWN,Coastal Carolina Regional Airport,New Bern,US-NC,US,NA,35.07300186,-77.04290009,18
EWR,Newark Liberty International Airport,Newark,US-NJ,US,NA,40.692501,-74.168701,18
EXI,Excursion Inlet Seaplane Base,Excursion Inlet,US-AK,US,NA,58.420502,-135.449005,0
EXT,Exeter International Airport,"Exeter, Devon",GB-ENG,GB,EU,50.734261,-3.413984,102
EYK,Beloyarskiy Airport,,RU-KHM,RU,EU,63.686901,66.698601,82
EYP,El Alcaravan - Yopal Airport,Yopal,CO-CAS,CO,SA,5.31911,-72.384,1028
EYW,Key West International Airport,Key West,US-FL,US,NA,24.556101,-81.759598,3
EZE,Minister Pistarini International Airport,Buenos Aires (Ezeiza),AR-B,AR,SA,-34.8222,-58.5358,67
EZS,Elazığ Airport,Elazığ,TR-23,TR,AS,38.597974,39.28348,2927
FAE,Vágar Airport,Vágar,FO-U-A,FO,EU,62.063256,-7.275782,280
FAI,Fairbanks International Airport,Fairbanks,US-AK,US,NA,64.815102,-147.856003,439
FAO,Faro Airport,Faro,PT-08,PT,EU,37.01440048,-7.965909958,24
FAR,Hector International Airport,Fargo,US-ND,US,NA,46.92070007,-96.81580353,902
FAT,Fresno Yosemite International Airport,Fresno,US-CA,US,NA,36.776199,-119.718002,336
FAV,Fakarava Airport,,PF-U-A,PF,OC,-16.05410004,-145.6569977,13
FAY,Fayetteville Regional Airport - Grannis Field,Fayetteville,US-NC,US,NA,34.991199,-78.880302,189
FBD,Fayzabad Airport,Fayzabad,AF-BDS,AF,AS,37.122148,70.5201,3872
FBE,Paulo Abdala Airport,Francisco Beltrão,BR-PR,BR,SA,-26.05938,-53.063827,2113
FBM,Lubumbashi International Airport,Lubumbashi,CD-HK,CD,AF,-11.59130001,27.53089905,4295
FBS,Friday Harbor Seaplane Base,Friday Harbor,US-WA,US,NA,48.5373,-123.010002,
FCA,Glacier Park International Airport,Kalispell,US-MT,US,NA,48.3105011,-114.2559967,2977
FCN,Sea-Airport Cuxhaven/Nordholz / Nordholz Naval Airbase,Wurster Nordseeküste,DE-NI,DE,EU,53.767689,8.659201,74
FCO,Rome–Fiumicino Leonardo da Vinci International Airport,Rome,IT-62,IT,EU,41.804532,12.251998,13
FDE,"Førde Airport, Bringeland",Førde,NO-46,NO,EU,61.391102,5.75694,1046
FDF,Martinique Aimé Césaire International Airport,Fort-de-France,MQ-U-A,MQ,NA,14.591,-61.003201,16
FDH,Friedrichshafen Airport,Friedrichshafen,DE-BW,DE,EU,47.671299,9.51149,1367
FDU,Bandundu Airport,Bandundu,CD-KL,CD,AF,-3.31132,17.381701,1063
FEC,João Durval Carneiro Airport,Feira de Santana,BR-BA,BR,SA,-12.200694,-38.906164,781
FEG,Fergana International Airport,Fergana,UZ-FA,UZ,AS,40.358799,71.745003,1980
FEN,Fernando de Noronha Airport,Fernando de Noronha,BR-PE,BR,SA,-3.854471,-32.423302,193
FEZ,Fes Saïss International Airport,Saïss,MA-03,MA,AF,33.927299,-4.97796,1900
FGU,Fangatau Airport,Fangatau,PF-U-A,PF,OC,-15.820044,-140.888071,9
FHZ,Fakahina Airport,Fakahina,PF-U-A,PF,OC,-15.992259,-140.164246,3
FIE,Fair Isle Airport,Fair Isle,GB-SCT,GB,EU,59.534721,-1.628509,223
FIH,Ndjili International Airport,Kinshasa,CD-KN,CD,AF,-4.38575,15.4446,1027
FIZ,Fitzroy Crossing Airport,,AU-WA,AU,OC,-18.183596,125.559783,368
FJR,Fujairah International Airport,Fujairah,AE-FU,AE,AS,25.1122,56.324001,152
FKB,Karlsruhe Baden-Baden Airport,Rheinmünster,DE-BW,DE,EU,48.7794,8.0805,408
FKI,Bangoka International Airport,Kisangani,CD-TO,CD,AF,0.4816389978,25.33799934,1417
FKQ,Fakfak Airport,Fakfak,ID-PB,ID,AS,-2.920508,132.267011,462
FKS,Fukushima Airport,Sukagawa,JP-07,JP,AS,37.22740173,140.4309998,1221
FLA,Gustavo Artunduaga Paredes Airport,Florencia,CO-CAQ,CO,SA,1.58919,-75.5644,803
FLG,Flagstaff Pulliam International Airport,Flagstaff,US-AZ,US,NA,35.1385,-111.670998,7014
FLL,Fort Lauderdale Hollywood International Airport,Fort Lauderdale,US-FL,US,NA,26.072599,-80.152702,9
FLN,Hercílio Luz International Airport,Florianópolis,BR-SC,BR,SA,-27.670279,-48.552502,16
FLO,Florence Regional Airport,Florence,US-SC,US,NA,34.1853981,-79.72389984,146
FLR,"Florence Airport, Peretola",Firenze (FI),IT-52,IT,EU,43.808558,11.202822,142
FLS,Flinders Island Airport,Whitemark,AU-TAS,AU,OC,-40.091702,147.992996,10
FLW,Flores Airport,Santa Cruz das Flores,PT-20,PT,EU,39.45529938,-31.13139915,112
FLZ,Dr. Ferdinand Lumban Tobing Airport,Sibolga (Pinangsori),ID-SU,ID,AS,1.557127,98.887145,33
FMA,Formosa National Airport,Formosa,AR-P,AR,SA,-26.2127,-58.2281,193
FMI,Kalemie Airport,Kalemie,CD-TA,CD,AF,-5.87556,29.25,2569
FMM,Memmingen Allgau Airport,Memmingen,DE-BY,DE,EU,47.98880005,10.23950005,2077
FMO,Münster Osnabrück Airport,Greven,DE-NW,DE,EU,52.134602,7.68483,160
FMT,Faresmaathoda Airport,Faresmaathodaa,MV-28,MV,AS,0.192647,73.196755,
FNA,Lungi International Airport,Freetown (Lungi-Town),SL-N,SL,AF,8.61644,-13.1955,84
FNC,Madeira International Airport Cristiano Ronaldo,Funchal,PT-30,PT,EU,32.697899,-16.7745,192
FND,Funadhoo Airport,Funadhoo,MV-24,MV,AS,6.162443,73.28752,
FNI,Nîmes-Arles-Camargue Airport,Nîmes/Garons,FR-OCC,FR,EU,43.757401,4.41635,309
FNJ,Pyongyang Sunan International Airport,Pyongyang,KP-01,KP,AS,39.224098,125.669998,117
FNR,Funter Bay Seaplane Base,Funter Bay,US-AK,US,NA,58.25439835,-134.897995,0
FNT,Bishop International Airport,Flint,US-MI,US,NA,42.9654007,-83.74359894,782
FOA,Foula Airfield,Foula,GB-SCT,GB,EU,60.121725,-2.053202,150
FOC,Fuzhou Changle International Airport,Fuzhou (Changle),CN-35,CN,AS,25.934669,119.66318,46
FOD,Fort Dodge Regional Airport,Fort Dodge,US-IA,US,NA,42.552624,-94.191237,1156
FOG,Foggia Gino Lisa Airport,Foggia (FG),IT-75,IT,EU,41.433596,15.534566,265
FOR,Pinto Martins International Airport,Fortaleza,BR-CE,BR,SA,-3.775833,-38.532222,83
FPO,Grand Bahama International Airport,Freeport,BS-FP,BS,NA,26.55870056,-78.69560242,7
FRA,Frankfurt Airport,Frankfurt am Main,DE-HE,DE,EU,50.030241,8.561096,364
FRD,Friday Harbor Airport,Friday Harbor,US-WA,US,NA,48.523654,-123.024645,113
FRE,Fera/Maringe Airport,Fera Island,SB-IS,SB,OC,-8.1075,159.576996,
FRL,Forlì Luigi Ridolfi Airport,Forlì (FC),IT-45,IT,EU,44.194801,12.0701,97
FRO,Florø Airport,Florø,NO-46,NO,EU,61.58359909,5.024720192,37
FRS,Mundo Maya International Airport,San Benito,GT-PE,GT,NA,16.913799,-89.866402,427
FRU,Manas International Airport,Bishkek,KG-C,KG,AS,43.061298,74.4776,2058
FRW,P G Matante Intl,Francistown,BW-FR,BW,AF,-21.15914,27.468545,3283
FSC,Figari Sud-Corse Airport,Figari Sud-Corse,FR-COR,FR,EU,41.500599,9.09778,85
FSD,Sioux Falls Regional Airport / Joe Foss Field,Sioux Falls,US-SD,US,NA,43.585463,-96.741152,1429
FSM,Fort Smith Regional Airport,Fort Smith,US-AR,US,NA,35.336601,-94.367401,469
FSP,St Pierre Airport,Saint-Pierre,PM-SP,PM,NA,46.76290131,-56.17309952,27
FSZ,Mount Fuji Shizuoka Airport,Makinohara / Shimada,JP-22,JP,AS,34.796043,138.187752,433
FTA,Futuna Airport,Futuna Island,VU-TAE,VU,OC,-19.51639938,170.2319946,95
FTE,El Calafate - Commander Armando Tola International Airport,El Calafate,AR-Z,AR,SA,-50.2803,-72.053101,669
FTI,Fitiuta Airport,Fitiuta Village,AS-MA,AS,OC,-14.216131,-169.423771,110
FTU,Tôlanaro Airport,Tôlanaro,MG-U,MG,AF,-25.038099,46.9561,29
FUE,Fuerteventura Airport,El Matorral,ES-CN,ES,AF,28.4527,-13.8638,85
FUG,Fuyang Xiguan Airport,"Yingzhou, Fuyang",CN-34,CN,AS,32.882157,115.734364,104
FUJ,Fukue Airport,Goto,JP-42,JP,AS,32.666302,128.832993,273
FUK,Fukuoka Airport,Fukuoka,JP-40,JP,AS,33.58589935,130.451004,32
FUN,Funafuti International Airport,Funafuti,TV-FUN,TV,OC,-8.525,179.195999,9
FUO,Foshan Shadi Airport,Foshan (Nanhai),CN-44,CN,AS,23.0825,113.070833,6
FUT,Pointe Vele Airport,Futuna Island,WF-U-A,WF,OC,-14.311565,-178.066492,20
FWA,Fort Wayne International Airport,Fort Wayne,US-IN,US,NA,40.9785,-85.195099,814
FYJ,Fuyuan Dongji Airport,Fuyuan,CN-23,CN,AS,48.197219,134.36298,
FYN,Fuyun Koktokay Airport,Fuyun,CN-65,CN,AS,46.804169,89.512006,3081
FYU,Fort Yukon Airport,Fort Yukon,US-AK,US,NA,66.571651,-145.249987,433
GAE,Gabès Matmata International Airport,Gabès,TN-81,TN,AF,33.733691,9.91941,407
GAF,Gafsa Ksar International Airport,Gafsa,TN-71,TN,AF,34.42200089,8.822500229,1060
GAJ,Yamagata Airport,Higashine,JP-06,JP,AS,38.4119,140.371002,353
GAL,Edward G. Pitka Sr Airport,Galena,US-AK,US,NA,64.736198,-156.936997,153
GAM,Gambell Airport,Gambell,US-AK,US,NA,63.767694,-171.733303,27
GAN,Gan International Airport,Gan,MV-01,MV,AS,-0.692694,73.151557,6
GAQ,Gao Airport,,ML-7,ML,AF,16.2484,-0.005456,870
GAU,Lokpriya Gopinath Bordoloi International Airport,Guwahati,IN-AS,IN,AS,26.10610008,91.58589935,162
GAX,Gamba Airport,Gamba,GA-8,GA,AF,-2.785278,10.047222,30
GAY,Gaya Airport,Gaya,IN-BR,IN,AS,24.744301,84.951202,380
GBB,Gabala International Airport,Gabala,AZ-QAB,AZ,AS,40.808617,47.725389,935
GBE,Sir Seretse Khama International Airport,Gaborone,BW-GA,BW,AF,-24.555201,25.9182,3299
GBI,Kalaburagi Airport,Kalaburagi,IN-KA,IN,AS,17.308154,76.965246,1571
GBJ,Marie-Galante Airport,Grand-Bourg,GP-U-A,GP,NA,15.868925,-61.270087,16
GCC,Northeast Wyoming Regional Airport,Gillette,US-WY,US,NA,44.3489,-105.539001,4365
GCH,Gachsaran Airport,Gachsaran,IR-17,IR,AS,30.333869,50.833796,2414
GCI,Guernsey Airport,Saint Peter Port,GG-G,GG,EU,49.435001,-2.60197,336
GCK,Garden City Regional Airport,Garden City,US-KS,US,NA,37.92750168,-100.723999,2891
GCM,Owen Roberts International Airport,George Town,KY-GC,KY,NA,19.292801,-81.357697,8
GCN,Grand Canyon National Park Airport,Grand Canyon - Tusayan,US-AZ,US,NA,35.9524,-112.147003,6609
GDB,Gondia Airport,Gondia,IN-MM,IN,AS,21.526817,80.290347,987
GDE,Gode Airport,Gode,ET-SO,ET,AF,5.935130119,43.57860184,834
GDL,Guadalajara International Airport,Guadalajara,MX-JAL,MX,NA,20.523342,-103.310108,5016
GDN,Gdańsk Lech Wałęsa Airport,Gdańsk,PL-PM,PL,EU,54.377602,18.4662,489
GDQ,Gondar Airport,Azezo,ET-AM,ET,AF,12.5199,37.433998,6449
GDT,JAGS McCartney International Airport,Cockburn Town,TC-GT,TC,NA,21.4445,-71.142303,13
GDV,Dawson Community Airport,Glendive,US-MT,US,NA,47.137658,-104.80691,2458
GDX,Sokol Airport,Magadan,RU-MAG,RU,AS,59.9109993,150.7200012,574
GDZ,Gelendzhik Airport,Gelendzhik,RU-KDA,RU,EU,44.58209263,38.01248074,98
GEA,Nouméa Magenta Airport,Nouméa,NC-03,NC,OC,-22.25812,166.472783,10
GEC,Lefkoniko Airport / Geçitkale Air Base,Lefkoniko (Geçitkale),CY-03,CY,AS,35.23591,33.720088,146
GEG,Spokane International Airport,Spokane,US-WA,US,NA,47.6199,-117.533997,2376
GEL,Santo Ângelo Airport,Santo Ângelo,BR-RS,BR,SA,-28.282503,-54.169623,1056
GEO,Cheddi Jagan International Airport,Georgetown,GY-DE,GY,SA,6.49855,-58.254101,95
GER,Rafael Cabrera Airport,Nueva Gerona,CU-99,CU,NA,21.83469963,-82.78379822,79
GES,General Santos International Airport,General Santos,PH-SCO,PH,AS,6.058000088,125.0960007,505
GET,Geraldton Airport,Moonyoonooka,AU-WA,AU,OC,-28.796101,114.707001,121
GEV,Gällivare Airport,Gällivare,SE-BD,SE,EU,67.13240051,20.81459999,1027
GFF,Griffith Airport,Griffith,AU-NSW,AU,OC,-34.25080109,146.0670013,439
GFK,Grand Forks International Airport,Grand Forks,US-ND,US,NA,47.949299,-97.176102,845
GGF,Almeirim Airport,Almeirim,BR-PA,BR,SA,-1.479524,-52.578214,584
GGG,East Texas Regional Airport,Longview,US-TX,US,NA,32.38399887,-94.71150208,365
GGJ,Guaíra Airport,Guaíra,BR-PR,BR,SA,-24.0811,-54.1917,889
GGR,Garowe Airport,Garowe,SO-NU,SO,AF,8.457942,48.567407,1465
GGS,Gobernador Gregores Airport,Gobernador Gregores,AR-Z,AR,SA,-48.7831,-70.150002,356
GGT,Exuma International Airport,Moss Town,BS-EX,BS,NA,23.562599,-75.877998,9
GGW,Glasgow Valley County Airport Wokal Field,Glasgow,US-MT,US,NA,48.212502,-106.614998,2296
GHA,Noumérat - Moufdi Zakaria Airport,El Atteuf,DZ-47,DZ,AF,32.384102,3.79411,1512
GHB,Governor's Harbour Airport,Governor's Harbour,BS-CE,BS,NA,25.2847,-76.331001,26
GHT,Ghat Airport,Ghat,LY-GT,LY,AF,25.14559937,10.14260006,2296
GHV,Brașov-Ghimbav International Airport,Brașov (Ghimbav),RO-BV,RO,EU,45.70558,25.522871,1740
GIB,Gibraltar Airport,Gibraltar,GI-U-A,GI,EU,36.151199,-5.34966,12
GIC,Boigu Island Airport,Boigu Island,AU-QLD,AU,OC,-9.23278,142.218002,23
GIG,Rio Galeão – Tom Jobim International Airport,Rio De Janeiro,BR-RJ,BR,SA,-22.809999,-43.250557,28
GIL,Gilgit Airport,Gilgit,PK-GB,PK,AS,35.91880035,74.33360291,4796
GIS,Gisborne Airport,Gisborne,NZ-GIS,NZ,OC,-38.6633,177.977997,15
GIZ,Jizan Regional Airport / King Abdullah bin Abdulaziz Airport,Jizan,SA-09,SA,AS,16.9011,42.5858,20
GJA,La Laguna Airport,Guanaja,HN-IB,HN,NA,16.4454,-85.906601,49
GJL,Jijel Ferhat Abbas Airport,Tahir,DZ-18,DZ,AF,36.795101,5.87361,36
GJT,Grand Junction Regional Airport,Grand Junction,US-CO,US,NA,39.126663,-108.529387,4858
GKA,Goroka Airport,Goronka,PG-EHG,PG,OC,-6.081689835,145.3919983,5282
GKK,Kooddoo Airport,Huvadhu Atoll,MV-27,MV,AS,0.7324,73.4336,29
GKN,Gulkana Airport,Gulkana,US-AK,US,NA,62.155859,-145.454662,1586
GLA,Glasgow Airport,Glasgow,GB-SCT,GB,EU,55.871899,-4.43306,26
GLF,Golfito Airport,Golfito,CR-P,CR,NA,8.65401,-83.182198,49
GLH,Mid Delta Regional Airport,Greenville,US-MS,US,NA,33.482899,-90.985603,131
GLK,Galcaio Airport,Galcaio,SO-MU,SO,AF,6.780829906,47.45470047,975
GLT,Gladstone Airport,Gladstone,AU-QLD,AU,OC,-23.869763,151.225439,64
GLV,Golovin Airport,Golovin,US-AK,US,NA,64.550499,-163.007004,59
GMA,Gemena Airport,Gemena,CD-SU,CD,AF,3.23537,19.771299,1378
GMB,Gambela Airport,Gambela,ET-GA,ET,AF,8.12876,34.563099,1614
GME,Gomel Airport,Gomel,BY-HO,BY,EU,52.52700043,31.01670074,472
GMI,Gasmata Island Airport,Gasmata Island,PG-WBK,PG,OC,-6.271110058,150.3309937,23
GMO,Gombe Lawanti International Airport,Gombe,NG-GO,NG,AF,10.298889,10.9,1590
GMP,Gimpo International Airport,Seoul,KR-11,KR,AS,37.5583,126.791,59
GMQ,Golog Maqên Airport,Golog (Maqên),CN-63,CN,AS,34.418066,100.301144,12426
GMR,Totegegie Airport,,PF-U-A,PF,OC,-23.07990074,-134.8899994,7
GMZ,La Gomera Airport,"Alajero, La Gomera Island",ES-CN,ES,AF,28.0296,-17.2146,716
GNB,Grenoble Alpes Isère Airport,"Saint-Étienne-de-Saint-Geoirs, Isère",FR-ARA,FR,EU,45.3629,5.32937,1302
GND,Maurice Bishop International Airport,Saint George's,GD-GE,GD,NA,12.0042,-61.786201,41
GNJ,Ganja International Airport,Ganja,AZ-GA,AZ,AS,40.738935,46.320067,1083
GNS,Binaka Airport,Gunungsitoli,ID-SU,ID,AS,1.16628,97.704327,20
GNU,Goodnews Airport,Goodnews,US-AK,US,NA,59.117561,-161.575241,15
GNV,Gainesville Regional Airport,Gainesville,US-FL,US,NA,29.69009972,-82.27179718,152
GNY,Şanlıurfa GAP Airport,Şanlıurfa,TR-63,TR,AS,37.445663,38.895592,2708
GOA,Genoa Cristoforo Colombo Airport,Genova (GE),IT-42,IT,EU,44.412039,8.840732,13
GOH,Nuuk Airport,Nuuk,GL-SE,GL,NA,64.191066,-51.67914,283
GOI,Dabolim Airport,Vasco da Gama,IN-GA,IN,AS,15.3808,73.831398,150
GOJ,Nizhny Novgorod / Strigino International Airport,Nizhny Novgorod,RU-NIZ,RU,EU,56.228254,43.785197,256
GOM,Goma International Airport,Goma,CD-NK,CD,AF,-1.66617,29.237929,5089
GOP,Gorakhpur Airport,Gorakhpur,IN-UP,IN,AS,26.73970032,83.4496994,259
GOQ,Golmud Airport,Golmud,CN-63,CN,AS,36.4006,94.786102,9334
GOT,Göteborg Landvetter Airport,Göteborg,SE-Q,SE,EU,57.6628,12.2798,506
GOU,Garoua International Airport,Garoua,CM-NO,CM,AF,9.335889816,13.37010002,794
GOV,Gove Airport,Nhulunbuy,AU-NT,AU,OC,-12.26939964,136.8179932,192
GOX,Manohar International Airport,Mopa,IN-GA,IN,AS,15.744257,73.860625,552
GOY,Tura Mountain Airport,Tura,RU-KYA,RU,AS,64.333511,100.432892,2044
GPA,Patras Araxos Agamemnon Airport,Patras,GR-G,GR,EU,38.1511,21.4256,46
GPB,Tancredo Thomas de Faria Airport,Guarapuava,BR-PR,BR,SA,-25.388327,-51.52349,3494
GPI,Juan Casiano Airport,Guapi,CO-CAU,CO,SA,2.57013,-77.897969,164
GPS,Seymour Galapagos Ecological Airport,Isla Baltra,EC-W,EC,SA,-0.453758,-90.2659,207
GPT,Gulfport Biloxi International Airport,Gulfport,US-MS,US,NA,30.407301,-89.070099,28
GRB,Austin Straubel International Airport,Green Bay,US-WI,US,NA,44.483459,-88.130805,695
GRI,Central Nebraska Regional Airport,Grand Island,US-NE,US,NA,40.96749878,-98.30960083,1847
GRJ,George Airport,George,ZA-WC,ZA,AF,-34.0056,22.378902,648
GRK,Killeen Regional Airport / Robert Gray Army Airfield,Fort Cavazos,US-TX,US,NA,31.0672,-97.828903,1015
GRO,Girona-Costa Brava Airport,Girona,ES-CT,ES,EU,41.904639,2.761774,468
GRQ,Groningen Airport Eelde,Groningen,NL-DR,NL,EU,53.119701,6.57944,17
GRR,Gerald R. Ford International Airport,Grand Rapids,US-MI,US,NA,42.88079834,-85.52279663,794
GRU,Guarulhos - Governador André Franco Montoro International Airport,São Paulo,BR-SP,BR,SA,-23.431944,-46.467778,2461
GRV,Grozny Airport,Grozny,RU-CE,RU,EU,43.388106,45.699772,548
GRW,Graciosa Airport,Santa Cruz da Graciosa,PT-20,PT,EU,39.09220123,-28.02980042,86
GRX,F.G.L. Airport Granada-Jaén Airport,Granada,ES-AN,ES,EU,37.188702,-3.77736,1860
GRY,Grímsey Airport,Grímsey,IS-6,IS,EU,66.5458,-18.0173,66
GRZ,Graz Airport,Feldkirchen bei Graz,AT-6,AT,EU,46.9911,15.4396,1115
GSM,Qeshm Dayrestan International Airport,Dayrestan,IR-22,IR,AS,26.754639,55.902353,45
GSO,Piedmont Triad International Airport,Greensboro,US-NC,US,NA,36.097801,-79.937302,925
GSP,Greenville Spartanburg International Airport,Greer,US-SC,US,NA,34.895699,-82.218903,964
GST,Gustavus Airport,Gustavus,US-AK,US,NA,58.4253006,-135.7070007,35
GSV,Gagarin International Airport,Saratov,RU-SAR,RU,AS,51.712778,46.171111,103
GTA,Gatokae Aerodrome,Gatokae,SB-WE,SB,OC,-8.738358,158.202836,70
GTE,Groote Eylandt Airport,Groote Eylandt,AU-NT,AU,OC,-13.972405,136.458553,53
GTF,Great Falls International Airport,Great Falls,US-MT,US,NA,47.48199844,-111.3710022,3680
GTO,Jalaluddin Airport,Gorontalo-Celebes Island,ID-GO,ID,AS,0.637119,122.849998,105
GTR,Golden Triangle Regional Airport,Columbus/W Point/Starkville,US-MS,US,NA,33.450298,-88.5914,264
GUA,La Aurora Airport,Guatemala City,GT-GU,GT,NA,14.5833,-90.527496,4952
GUB,Guerrero Negro Airport,San Quintín,MX-BCN,MX,NA,28.0261,-114.024002,59
GUC,Gunnison Crested Butte Regional Airport,Gunnison,US-CO,US,NA,38.534672,-106.934566,7680
GUM,Antonio B. Won Pat International Airport,Hagåtña,GU-U-A,GU,OC,13.485,144.797282,298
GUP,Gallup Municipal Airport,Gallup,US-NM,US,NA,35.511653,-108.788166,6472
GUR,Gurney Airport,Gurney,PG-MBA,PG,OC,-10.3114996,150.3339996,88
GUW,Atyrau International Airport,Atyrau,KZ-ATY,KZ,AS,47.122559,51.819321,-72
GUZ,Guarapari Airport,Guarapari,BR-ES,BR,SA,-20.6465,-40.491901,30
GVA,Geneva Cointrin International Airport,Geneva,CH-GE,CH,EU,46.238098,6.10895,1411
GVR,Coronel Altino Machado Airport,Governador Valadares,BR-MG,BR,SA,-18.895882,-41.982869,561
GWD,New Gwadar International Airport,Gurandani,PK-BA,PK,AS,25.296733,62.498822,61
GWL,Gwalior Airport,Gwalior,IN-MP,IN,AS,26.29330063,78.22779846,617
GWT,Westerland Sylt Airport,Sylt,DE-SH,DE,EU,54.9132,8.34047,51
GXF,Seiyun Hadhramaut International Airport,Seiyun,YE-HD,YE,AS,15.9661,48.7883,2097
GXG,Negage Airport,Negage,AO-UIG,AO,AF,-7.754509926,15.2876997,4105
GXH,Gannan Xiahe Airport,Gannan (Xiahe),CN-62,CN,AS,34.819014,102.622261,10510
GYA,Guayaramerín Airport,Guayaramerín,BO-B,BO,SA,-10.88856,-65.380955,456
GYD,Heydar Aliyev International Airport,Baku,AZ-BA,AZ,AS,40.46749878,50.04669952,10
GYE,José Joaquín de Olmedo International Airport,Guayaquil,EC-G,EC,SA,-2.15742,-79.883598,19
GYM,General José María Yáñez International Airport,Guaymas,MX-SON,MX,NA,27.96899986,-110.9250031,59
GYN,Santa Genoveva Airport,Goiânia,BR-GO,BR,SA,-16.632,-49.220699,2450
GYS,Guangyuan Panlong Airport,Guangyuan (Lizhou),CN-51,CN,AS,32.390254,105.694571,
GYU,Guyuan Liupanshan Airport,Guyuan (Yuanzhou),CN-64,CN,AS,36.078889,106.216944,5727
GYZ,Gruyere Airport,Cosmo Newbery,AU-WA,AU,OC,-28.034548,123.81506,1542
GZG,Garze Gesar Airport,Garzê (Garzê),CN-51,CN,AS,31.7575,99.554167,13346
GZM,Xewkija Heliport,Gozo,MT-62,MT,EU,36.027199,14.2728,322
GZO,Nusatupe Airport,Gizo,SB-WE,SB,OC,-8.097780228,156.8639984,13
GZP,Gazipaşa-Alanya Airport,Gazipaşa,TR-07,TR,AS,36.299217,32.300598,92
GZT,Gaziantep International Airport,Gaziantep,TR-27,TR,AS,36.947201,37.478699,2315
HAA,Hasvik Airport,Hasvik,NO-56,NO,EU,70.486702,22.1397,21
HAC,Hachijojima Airport,Hachijojima,JP-13,JP,AS,33.115002,139.785995,303
HAD,Halmstad Airport,Halmstad,SE-N,SE,EU,56.69110107,12.82019997,101
HAH,Prince Said Ibrahim International Airport,Moroni,KM-G,KM,AF,-11.5337,43.2719,93
HAJ,Hannover Airport,Hannover,DE-NI,DE,EU,52.461102,9.68508,183
HAK,Haikou Meilan International Airport,Haikou (Meilan),CN-46,CN,AS,19.9349,110.459,75
HAL,Halali Airport,Halali,NA-OT,NA,AF,-19.0285,16.4585,3639
HAM,Hamburg Helmut Schmidt Airport,Hamburg,DE-HH,DE,EU,53.630402,9.98823,53
HAN,Noi Bai International Airport,Hanoi (Soc Son),VN-RRD,VN,AS,21.221201,105.806999,39
HAQ,Hanimaadhoo Airport,Haa Dhaalu Atoll,MV-23,MV,AS,6.744229794,73.17050171,4
HAS,Ha'il Airport,Ha'il,SA-06,SA,AS,27.437901,41.686298,3331
HAU,"Haugesund Airport, Karmøy",Karmøy,NO-11,NO,EU,59.345299,5.20836,86
HAV,José Martí International Airport,Havana,CU-03,CU,NA,22.98920059,-82.40910339,210
HBA,Hobart International Airport,Hobart (Cambridge),AU-TAS,AU,OC,-42.8371,147.51295,13
HBE,Borj El Arab International Airport,Alexandria,EG-ALX,EG,AF,30.93249,29.696437,171
HBQ,Haibei Qilian Airport,Haibei (Qilian),CN-63,CN,AS,38.008068,100.645065,10377
HBT,Hambantota Seaplane Base,Hambantota,LK-3,LK,AS,6.124043,81.103,0
HBX,Hubli Airport,Hubli,IN-KA,IN,AS,15.3617,75.0849,2171
HCJ,Hechi Jinchengjiang Airport,Hechi (Jinchengjiang),CN-45,CN,AS,24.804344,107.710819,2221
HCR,Holy Cross Airport,Holy Cross,US-AK,US,NA,62.18830109,-159.7749939,70
HCZ,Chenzhou Beihu Airport,Chenzhou,CN-43,CN,AS,25.753419,112.845404,1071
HDD,Hyderabad Airport,Hyderabad,PK-SD,PK,AS,25.3181,68.366096,130
HDF,Heringsdorf Airport,Zirchow,DE-MV,DE,EU,53.8787,14.1523,93
HDG,Handan Airport,Handan,CN-13,CN,AS,36.525833,114.425556,229
HDK,Kulhudhuffushi Airport,Kulhudhuffushi,MV-23,MV,AS,6.630762,73.067815,
HDM,Hamadan Airport,Hamadan,IR-13,IR,AS,34.869202,48.552502,5755
HDN,Yampa Valley Airport,Hayden,US-CO,US,NA,40.481201,-107.218002,6606
HDO,Hindon Airport / Hindon Air Force Station,Ghaziabad,IN-UP,IN,AS,28.707701,77.358902,700
HDS,Hoedspruit Air Force Base Airport,Hoedspruit,ZA-NP,ZA,AF,-24.36860085,31.04870033,1743
HDY,Hat Yai International Airport,Hat Yai,TH-90,TH,AS,6.933209896,100.3929977,90
HEA,Herat - Khwaja Abdullah Ansari International Airport,Guzara,AF-HER,AF,AS,34.209999,62.228298,3206
HEH,Heho Airport,Kalaw Township,MM-17,MM,AS,20.74714,96.792029,3858
HEI,Heide-Büsum Airport,Oesterdeichstrich,DE-SH,DE,EU,54.153332,8.901667,7
HEK,Heihe Aihui Airport,Heihe,CN-23,CN,AS,50.171621,127.308884,1047
HEL,Helsinki Vantaa Airport,Helsinki (Vantaa),FI-18,FI,EU,60.318363,24.963341,179
HER,Heraklion International Nikos Kazantzakis Airport,Heraklion,GR-M,GR,EU,35.339699,25.1803,115
HET,Hohhot Baita International Airport,Hohhot,CN-15,CN,AS,40.849658,111.824598,3556
HFA,Haifa International Airport,Haifa,IL-HA,IL,AS,32.80939865,35.04309845,28
HFE,Hefei Xinqiao International Airport,Hefei,CN-34,CN,AS,31.98779,116.9769,207
HFN,Hornafjörður Airport,Höfn,IS-8,IS,EU,64.295601,-15.2272,24
HFS,Hagfors Airport,Råda,SE-S,SE,EU,60.0201,13.5789,474
HFT,Hammerfest Airport,Hammerfest,NO-56,NO,EU,70.679703,23.6686,266
HGA,Egal International Airport,Hargeisa,SO-WO,SO,AF,9.513207,44.082389,4471
HGD,Hughenden Airport,Hughenden,AU-QLD,AU,OC,-20.815001,144.225006,1043
HGH,Hangzhou Xiaoshan International Airport,Hangzhou,CN-33,CN,AS,30.23609,120.428865,23
HGI,Itanagar Donyi Polo Hollongi Airport,Hollongi,IN-AR,IN,AS,26.96683,93.638792,328
HGL,Helgoland-Düne Airport,Helgoland,DE-SH,DE,EU,54.18527985,7.915832996,8
HGN,Mae Hong Son Airport,Mae Hong Son,TH-58,TH,AS,19.3013,97.9758,929
HGO,Korhogo Airport,Korhogo,CI-SV,CI,AF,9.38718,-5.55666,1214
HGR,Hagerstown Regional Richard A Henson Field,Hagerstown,US-MD,US,NA,39.708771,-77.728014,703
HGU,Mount Hagen Kagamuga Airport,Mount Hagen,PG-WHM,PG,OC,-5.828212,144.299412,5388
HHH,Hilton Head Airport,Hilton Head Island,US-SC,US,NA,32.2244,-80.697502,19
HHN,Frankfurt-Hahn Airport,Frankfurt am Main (Lautzenhausen),DE-RP,DE,EU,49.9487,7.26389,1649
